# 
# Header Description:
# 
# Version: 1.16.0 Platform: 9 Manufacturer: samsung Model: SM-G950F
# 
# Raw,ElapsedRealtimeMillis,TimeNanos,LeapSecond,TimeUncertaintyNanos,FullBiasNanos,BiasNanos,BiasUncertaintyNanos,DriftNanosPerSecond,DriftUncertaintyNanosPerSecond,HardwareClockDiscontinuityCount,Svid,TimeOffsetNanos,State,ReceivedSvTimeNanos,ReceivedSvTimeUncertaintyNanos,Cn0DbHz,PseudorangeRateMetersPerSecond,PseudorangeRateUncertaintyMetersPerSecond,AccumulatedDeltaRangeState,AccumulatedDeltaRangeMeters,AccumulatedDeltaRangeUncertaintyMeters,CarrierFrequencyHz,CarrierCycles,CarrierPhase,CarrierPhaseUncertainty,MultipathIndicator,SnrInDb,ConstellationType,AgcDb,CarrierFrequencyHz
# 
# Fix,ElapsedRealtimeMillis,PositionProvider,Latitude,Longitude,Altitude,Speed,PositionAccuracy
# 
# Nav,Svid,Type,Status,MessageId,Sub-messageId,Data(Bytes)
# Wifi,ElapsedRealtimeMillis,gpsWeek,gpsSow,MacAddress,DistanceMm,DistanceStdDevMm,Rssi,Frequency,PositionProvider,Latitude,Longitude,Altitude,Speed,PositionAccuracy
# 
# Event,ElapsedRealtimeMillis,Label,Description,PositionProvider,Latitude,Longitude,Altitude,PositionAccuracy
Raw,1348305,2124000000,,,-1317110508223999999,0.0,1.0002555450895071E9,,,0,3,0.0,17,395981,11,43.65037536621094,-790.315453556319,0.056346521693495744,22,-14.996727776924402,3.4028234663852886E38,,,,,0,,1,-18.896240234375,
Raw,1348307,2124000000,,,-1317110508223999999,0.0,1.0002555450895071E9,,,0,14,0.0,17,294219,34,33.75788879394531,-417.548537415385,0.17488049599255728,22,-7.923243425484639,3.4028234663852886E38,,,,,0,,1,-18.896240234375,
Raw,1348309,2124000000,,,-1317110508223999999,0.0,1.0002555450895071E9,,,0,21,0.0,17,112994,54,29.840274810791016,-248.4828867410058,0.2705630485679471,22,-4.715117487513777,3.4028234663852886E38,,,,,0,,1,-18.896240234375,
Raw,1348309,2124000000,,,-1317110508223999999,0.0,1.0002555450895071E9,,,0,22,0.0,17,971090,16,40.02351379394531,-531.3062342006997,0.08540191573013844,22,-10.580452967321353,3.4028234663852886E38,,,,,0,,1,-18.896240234375,
Raw,1348310,2124000000,,,-1317110508223999999,0.0,1.0002555450895071E9,,,0,27,0.0,17,255291,29,35.0308952331543,402.1271460651394,0.1520371954792289,22,7.630613002390424,3.4028234663852886E38,,,,,0,,1,-18.896240234375,
Raw,1348311,2124000000,,,-1317110508223999999,0.0,1.0002555450895071E9,,,0,6,0.0,17,156820,73,33.19040298461914,-731.5841554867338,0.1831058342316172,22,-592.4952273742397,3.4028234663852886E38,,,,,0,,3,-26.494020462036133,
Raw,1348312,2124000000,,,-1317110508223999999,0.0,1.0002555450895071E9,,,0,19,0.0,16,13351434,1000000000,35.85760498046875,-322.25129646354185,2.99792458E8,22,-68.68474114283863,3.4028234663852886E38,,,,,0,,5,-23.242238998413086,
Fix,1349173,network,41.413835,2.193459,61.100002,0.000000,17.084999
Raw,1349353,3124000000,,,-1317110508223999999,0.0,1.0002555450895071E9,,,0,3,0.0,17,398639,12,42.350250244140625,-790.0389766690059,0.06514306559488997,20,-804.8094451854337,3.4028234663852886E38,,,,,0,,1,-18.24720001220703,
Raw,1349354,3124000000,,,-1317110508223999999,0.0,1.0002555450895071E9,,,0,14,0.0,17,295709,43,31.716659545898438,-416.6122923347034,0.21635877901351963,20,-426.06971638856726,3.4028234663852886E38,,,,,0,,1,-18.24720001220703,
Raw,1349355,3124000000,,,-1317110508223999999,0.0,1.0002555450895071E9,,,0,21,0.0,17,113733,40,32.34136962890625,-249.25362741281265,0.20300885719687423,20,-254.17724658649647,3.4028234663852886E38,,,,,0,,1,-18.24720001220703,
Raw,1349356,3124000000,,,-1317110508223999999,0.0,1.0002555450895071E9,,,0,22,0.0,17,972875,10,43.918548583984375,-530.2578919205146,0.05551356509492167,20,-541.9290913836135,3.4028234663852886E38,,,,,0,,1,-18.24720001220703,
Raw,1349357,3124000000,,,-1317110508223999999,0.0,1.0002555450895071E9,,,0,27,0.0,17,254018,43,31.678653717041016,402.67883878887415,0.21765479437808355,20,409.6146577995211,3.4028234663852886E38,,,,,0,,1,-18.24720001220703,
Raw,1349358,3124000000,,,-1317110508223999999,0.0,1.0002555450895071E9,,,0,6,0.0,17,159405,104,30.126548767089844,-732.0425645269656,0.26173098269221307,20,-1324.6246545514998,3.4028234663852886E38,,,,,0,,3,-25.642974853515625,
Raw,1349361,3124000000,,,-1317110508223999999,0.0,1.0002555450895071E9,,,0,19,0.0,17,352451,16,34.13990783691406,-318.56326792566506,0.16523124996785055,20,-389.93495233600544,3.4028234663852886E38,,,,,0,,5,-22.877742767333984,
Raw,1350290,4124000000,,,-1317110508223999999,0.0,1.0002555450895071E9,,,0,3,0.0,17,401248,20,38.43716049194336,-789.2535805408943,0.10115288669824773,20,-1594.156046965061,3.4028234663852886E38,,,,,0,,1,-18.529691696166992,
Raw,1350291,4124000000,,,-1317110508223999999,0.0,1.0002555450895071E9,,,0,14,0.0,17,297067,47,30.95566177368164,-416.7896915209046,0.23606636039215367,20,-843.1878147663515,3.4028234663852886E38,,,,,0,,1,-18.529691696166992,
Raw,1350292,4124000000,,,-1317110508223999999,0.0,1.0002555450895071E9,,,0,21,0.0,17,114523,37,32.952720642089844,-248.70757533563244,0.18939637731550207,20,-502.89826352000614,3.4028234663852886E38,,,,,0,,1,-18.529691696166992,
Raw,1350292,4124000000,,,-1317110508223999999,0.0,1.0002555450895071E9,,,0,22,0.0,17,974624,15,40.43989181518555,-529.5064760015562,0.08153124370119758,20,-1072.7496964673385,3.4028234663852886E38,,,,,0,,1,-18.529691696166992,
Raw,1350293,4124000000,,,-1317110508223999999,0.0,1.0002555450895071E9,,,0,27,0.0,17,252664,39,32.59214782714844,402.7797910250947,0.19607464162598287,20,812.2547967323478,3.4028234663852886E38,,,,,0,,1,-18.529691696166992,
Raw,1350294,4124000000,,,-1317110508223999999,0.0,1.0002555450895071E9,,,0,6,0.0,51,18161632,89,31.475065231323242,-731.2021593140262,0.22456361452482754,20,-2056.0953094933925,3.4028234663852886E38,,,,,0,,3,-25.877742767333984,
Raw,1350295,4124000000,,,-1317110508223999999,0.0,1.0002555450895071E9,,,0,19,0.0,17,353529,9,39.033843994140625,-317.23091653527536,0.09509266646508341,20,-708.4720789859174,3.4028234663852886E38,,,,,0,,5,-23.11903190612793,
Raw,1351294,5124000000,,,-1317110508223999999,0.0,1.0002555450895071E9,,,0,3,0.0,51,10403887,21,37.783653259277344,-788.9730819237116,0.10891128862621535,17,-2383.5102408997955,0.002085369545966387,,,,,0,,1,-18.24720001220703,
Raw,1351294,5124000000,,,-1317110508223999999,0.0,1.0002555450895071E9,,,0,14,0.0,51,6298509,49,30.51055908203125,-416.067859174208,0.24841947020645372,20,-1259.6737656340313,3.4028234663852886E38,,,,,0,,1,-18.24720001220703,
Raw,1351296,5124000000,,,-1317110508223999999,0.0,1.0002555450895071E9,,,0,21,0.0,17,115390,32,34.14252853393555,-248.62858924264083,0.1654992499091803,20,-751.7572320016486,3.4028234663852886E38,,,,,0,,1,-18.24720001220703,
Raw,1351297,5124000000,,,-1317110508223999999,0.0,1.0002555450895071E9,,,0,22,0.0,51,14976410,17,39.53643798828125,-529.349355876986,0.09017343468059519,20,-1602.4891595645634,3.4028234663852886E38,,,,,0,,1,-18.24720001220703,
Raw,1351298,5124000000,,,-1317110508223999999,0.0,1.0002555450895071E9,,,0,27,0.0,51,8251279,55,29.581714630126953,403.017754736537,0.2766805832446,20,1214.967899095495,3.4028234663852886E38,,,,,0,,1,-18.24720001220703,
Raw,1351299,5124000000,,,-1317110508223999999,0.0,1.0002555450895071E9,,,0,6,0.0,51,18164102,114,29.32693862915039,-730.9684218271927,0.2866552934305453,20,-2787.518461630442,3.4028234663852886E38,,,,,0,,3,-25.877742767333984,
Raw,1351301,5124000000,,,-1317110508223999999,0.0,1.0002555450895071E9,,,0,19,0.0,17,354578,14,35.452369689941406,-317.73475749005206,0.14239630365040812,20,-1026.3375384989577,3.4028234663852886E38,,,,,0,,5,-23.11903190612793,
Wifi,1351981,2177,460914.000000,4a:eb:62:8e:5b:76,,,-57,2437,network,41.413835,2.193459,61.100002,0.000000,17.084999
Wifi,1351981,2177,460914.000000,f8:5b:3b:b1:13:bf,,,-71,2427,network,41.413835,2.193459,61.100002,0.000000,17.084999
Wifi,1351981,2177,460914.000000,88:10:8f:78:f4:0c,,,-72,2412,network,41.413835,2.193459,61.100002,0.000000,17.084999
Wifi,1351981,2177,460914.000000,fc:3f:db:c6:6a:54,,,-73,2437,network,41.413835,2.193459,61.100002,0.000000,17.084999
Wifi,1351981,2177,460914.000000,5a:51:63:8d:d8:ec,,,-75,5540,network,41.413835,2.193459,61.100002,0.000000,17.084999
Wifi,1351981,2177,460914.000000,5a:51:63:8d:d8:ee,,,-76,5540,network,41.413835,2.193459,61.100002,0.000000,17.084999
Wifi,1351981,2177,460914.000000,90:94:e4:a3:c3:80,,,-77,5180,network,41.413835,2.193459,61.100002,0.000000,17.084999
Wifi,1351981,2177,460914.000000,08:f4:58:9a:da:58,,,-79,2457,network,41.413835,2.193459,61.100002,0.000000,17.084999
Wifi,1351981,2177,460914.000000,e6:5b:3b:b1:13:be,,,-80,5220,network,41.413835,2.193459,61.100002,0.000000,17.084999
Wifi,1351981,2177,460914.000000,f8:5b:3b:b1:13:be,,,-81,5220,network,41.413835,2.193459,61.100002,0.000000,17.084999
Wifi,1351981,2177,460914.000000,4a:eb:62:ee:5b:76,,,-81,5765,network,41.413835,2.193459,61.100002,0.000000,17.084999
Wifi,1351981,2177,460914.000000,58:23:8c:04:89:97,,,-82,2462,network,41.413835,2.193459,61.100002,0.000000,17.084999
Wifi,1351981,2177,460914.000000,6a:75:dc:a9:96:64,,,-82,5500,network,41.413835,2.193459,61.100002,0.000000,17.084999
Wifi,1351981,2177,460914.000000,62:be:dd:c3:20:68,,,-82,2412,network,41.413835,2.193459,61.100002,0.000000,17.084999
Wifi,1351981,2177,460914.000000,e4:75:dc:a9:96:67,,,-83,5500,network,41.413835,2.193459,61.100002,0.000000,17.084999
Wifi,1351981,2177,460914.000000,f0:b0:14:70:5b:c8,,,-83,5580,network,41.413835,2.193459,61.100002,0.000000,17.084999
Wifi,1351981,2177,460914.000000,44:fe:3b:fe:95:4b,,,-84,5500,network,41.413835,2.193459,61.100002,0.000000,17.084999
Wifi,1351981,2177,460914.000000,62:fe:3b:fe:95:48,,,-84,5500,network,41.413835,2.193459,61.100002,0.000000,17.084999
Wifi,1351981,2177,460914.000000,48:00:33:78:9d:01,,,-84,5220,network,41.413835,2.193459,61.100002,0.000000,17.084999
Wifi,1351981,2177,460914.000000,62:be:dd:c3:20:6b,,,-85,2412,network,41.413835,2.193459,61.100002,0.000000,17.084999
Wifi,1351981,2177,460914.000000,cc:ed:dc:b1:b3:28,,,-85,2412,network,41.413835,2.193459,61.100002,0.000000,17.084999
Wifi,1351981,2177,460914.000000,84:aa:9c:8f:10:8e,,,-85,2437,network,41.413835,2.193459,61.100002,0.000000,17.084999
Wifi,1351981,2177,460914.000000,2c:79:d7:c7:62:35,,,-85,5500,network,41.413835,2.193459,61.100002,0.000000,17.084999
Wifi,1351981,2177,460914.000000,5c:b1:3e:99:e9:31,,,-86,5500,network,41.413835,2.193459,61.100002,0.000000,17.084999
Wifi,1351981,2177,460914.000000,2c:79:d7:c7:62:36,,,-86,5500,network,41.413835,2.193459,61.100002,0.000000,17.084999
Wifi,1351981,2177,460914.000000,e6:cb:ac:96:aa:c3,,,-86,5200,network,41.413835,2.193459,61.100002,0.000000,17.084999
Wifi,1351981,2177,460914.000000,ee:cb:ac:96:aa:c3,,,-87,5200,network,41.413835,2.193459,61.100002,0.000000,17.084999
Wifi,1351981,2177,460914.000000,cc:ed:dc:b1:b3:2f,,,-87,5220,network,41.413835,2.193459,61.100002,0.000000,17.084999
Wifi,1351981,2177,460914.000000,70:0b:01:b9:ec:45,,,-87,5580,network,41.413835,2.193459,61.100002,0.000000,17.084999
Wifi,1351981,2177,460914.000000,c6:ed:dc:b1:b3:2f,,,-87,5220,network,41.413835,2.193459,61.100002,0.000000,17.084999
Wifi,1351981,2177,460914.000000,20:89:86:1d:99:e6,,,-87,2412,network,41.413835,2.193459,61.100002,0.000000,17.084999
Wifi,1351981,2177,460914.000000,e2:cb:ac:96:aa:c3,,,-87,5200,network,41.413835,2.193459,61.100002,0.000000,17.084999
Wifi,1351981,2177,460914.000000,ea:cb:ac:96:aa:c3,,,-87,5200,network,41.413835,2.193459,61.100002,0.000000,17.084999
Wifi,1351981,2177,460914.000000,62:8d:36:cf:06:52,,,-87,5500,network,41.413835,2.193459,61.100002,0.000000,17.084999
Wifi,1351981,2177,460914.000000,ac:3b:77:8d:9e:97,,,-87,5500,network,41.413835,2.193459,61.100002,0.000000,17.084999
Wifi,1351981,2177,460914.000000,de:cb:ac:96:aa:c3,,,-88,5200,network,41.413835,2.193459,61.100002,0.000000,17.084999
Wifi,1351981,2177,460914.000000,98:de:d0:36:fa:ea,,,-88,2452,network,41.413835,2.193459,61.100002,0.000000,17.084999
Wifi,1351981,2177,460914.000000,e0:51:63:29:41:be,,,-88,5300,network,41.413835,2.193459,61.100002,0.000000,17.084999
Wifi,1351981,2177,460914.000000,62:51:63:29:41:bd,,,-88,5300,network,41.413835,2.193459,61.100002,0.000000,17.084999
Wifi,1351981,2177,460914.000000,6a:be:dd:c3:20:69,,,-88,5540,network,41.413835,2.193459,61.100002,0.000000,17.084999
Wifi,1351981,2177,460914.000000,6a:be:dd:c3:20:6b,,,-88,5540,network,41.413835,2.193459,61.100002,0.000000,17.084999
Wifi,1351981,2177,460914.000000,d8:7d:7f:5a:4e:26,,,-88,5180,network,41.413835,2.193459,61.100002,0.000000,17.084999
Wifi,1351981,2177,460914.000000,e8:65:d4:df:76:75,,,-88,5220,network,41.413835,2.193459,61.100002,0.000000,17.084999
Wifi,1351981,2177,460914.000000,e0:60:66:b6:08:dc,,,-88,5240,network,41.413835,2.193459,61.100002,0.000000,17.084999
Wifi,1351981,2177,460914.000000,1e:ec:da:99:b8:dd,,,-88,2462,network,41.413835,2.193459,61.100002,0.000000,17.084999
Wifi,1351981,2177,460914.000000,3c:17:10:59:37:8e,,,-88,5500,network,41.413835,2.193459,61.100002,0.000000,17.084999
Wifi,1351981,2177,460914.000000,c8:5a:9f:cb:8a:ce,,,-89,5180,network,41.413835,2.193459,61.100002,0.000000,17.084999
Wifi,1351981,2177,460914.000000,f8:8e:85:d3:b9:7b,,,-89,2447,network,41.413835,2.193459,61.100002,0.000000,17.084999
Wifi,1351981,2177,460914.000000,70:0b:01:b9:ec:46,,,-89,5580,network,41.413835,2.193459,61.100002,0.000000,17.084999
Wifi,1351981,2177,460914.000000,e4:75:dc:a9:96:66,,,-89,2462,network,41.413835,2.193459,61.100002,0.000000,17.084999
Wifi,1351981,2177,460914.000000,78:29:ed:70:02:74,,,-89,5500,network,41.413835,2.193459,61.100002,0.000000,17.084999
Wifi,1351981,2177,460914.000000,6a:be:dd:c3:20:68,,,-89,5540,network,41.413835,2.193459,61.100002,0.000000,17.084999
Wifi,1351981,2177,460914.000000,5a:8d:36:30:5f:af,,,-89,5500,network,41.413835,2.193459,61.100002,0.000000,17.084999
Wifi,1351981,2177,460914.000000,3c:17:10:59:37:8d,,,-89,5500,network,41.413835,2.193459,61.100002,0.000000,17.084999
Wifi,1351981,2177,460914.000000,d8:a7:56:f2:9e:6e,,,-90,2437,network,41.413835,2.193459,61.100002,0.000000,17.084999
Wifi,1351981,2177,460914.000000,48:8d:36:cf:06:51,,,-91,5500,network,41.413835,2.193459,61.100002,0.000000,17.084999
Wifi,1351981,2177,460914.000000,62:8d:36:cf:06:50,,,-91,5500,network,41.413835,2.193459,61.100002,0.000000,17.084999
Raw,1352283,6124000000,,,-1317110508223999999,0.0,1.0002555450895071E9,,,0,3,0.0,51,10406446,35,33.375553131103516,-789.5975406921225,0.17967963205072868,20,-3172.7480998987976,3.4028234663852886E38,,,,,0,,1,-19.679283142089844,
Raw,1352284,6124000000,,,-1317110508223999999,0.0,1.0002555450895071E9,,,0,14,0.0,51,6299861,41,32.111385345458984,-416.485471513982,0.20679760152392945,20,-1676.0618362069256,3.4028234663852886E38,,,,,0,,1,-19.679283142089844,
Raw,1352285,6124000000,,,-1317110508223999999,0.0,1.0002555450895071E9,,,0,21,0.0,51,15116237,24,36.726524353027344,-248.96961830260807,0.12361231856734595,20,-1000.5052605267905,3.4028234663852886E38,,,,,0,,1,-19.679283142089844,
Raw,1352286,6124000000,,,-1317110508223999999,0.0,1.0002555450895071E9,,,0,22,0.0,51,14978175,21,37.76572036743164,-529.1661967556324,0.109955330126418,17,-2131.9838387570585,0.0020896797068417072,,,,,0,,1,-19.679283142089844,
Raw,1352287,6124000000,,,-1317110508223999999,0.0,1.0002555450895071E9,,,0,27,0.0,51,8249928,45,31.28300666809082,402.8789709735761,0.2277284734941759,20,1617.8541110581828,3.4028234663852886E38,,,,,0,,1,-19.679283142089844,
Raw,1352288,6124000000,,,-1317110508223999999,0.0,1.0002555450895071E9,,,0,6,0.0,51,18166405,71,25.710315704345703,-731.0931636180662,4.203267677937651,20,-13.147802481954386,3.4028234663852886E38,,,,,0,,3,-26.753320693969727,
Raw,1352289,6124000000,,,-1317110508223999999,0.0,1.0002555450895071E9,,,0,19,0.0,17,355634,14,35.1003532409668,-318.24187036065496,0.14818662677425265,20,-1344.3326126870527,3.4028234663852886E38,,,,,0,,5,-23.494020462036133,
Fix,1353369,gps,41.413681,2.193759,109.603043,0.096839,48.000000
Raw,1353419,7124000000,,,-1317110508221051358,0.0,1011000.0,,,0,3,0.0,51,10409168,33,34.097633361816406,-789.061832640497,0.16549622109712603,20,-3961.5724697457513,3.4028234663852886E38,,,,,0,,1,-20.160232543945312,
Raw,1353420,7124000000,,,-1317110508221051358,0.0,1011000.0,,,0,14,0.0,51,6301217,51,30.250045776367188,-415.89577685122435,0.25594904704790344,20,-2091.5356892627246,3.4028234663852886E38,,,,,0,,1,-20.160232543945312,
Raw,1353421,7124000000,,,-1317110508221051358,0.0,1011000.0,,,0,21,0.0,39,1275117078,27,35.554222106933594,-248.71132440584995,0.1410813166059438,20,-1248.9920315694526,3.4028234663852886E38,,,,,0,,1,-20.160232543945312,
Raw,1353423,7124000000,,,-1317110508221051358,0.0,1011000.0,,,0,22,0.0,39,1274979900,28,35.43254089355469,-529.0742422879339,0.14300865622375447,20,-2661.305032082437,3.4028234663852886E38,,,,,0,,1,-20.160232543945312,
Raw,1353424,7124000000,,,-1317110508221051358,0.0,1011000.0,,,0,27,0.0,51,8248603,26,36.09123992919922,403.28683573078456,0.1315505270878432,20,2021.050106713927,3.4028234663852886E38,,,,,0,,1,-20.160232543945312,
Raw,1353424,7124000000,,,-1317110508221051358,0.0,1011000.0,,,0,6,0.0,51,18169163,67,26.604557037353516,-731.0727823090656,4.203268210476034,20,-743.5424826777061,3.4028234663852886E38,,,,,0,,3,-27.020599365234375,
Raw,1353425,7124000000,,,-1317110508221051358,0.0,1011000.0,,,0,19,0.0,51,13356708,6,41.64042282104492,-317.62746591691825,0.07106309509868508,20,-4.12093556431978,3.4028234663852886E38,,,,,0,,5,-24.020599365234375,
Raw,1353426,7124000000,,,-1317110508221051358,0.0,1011000.0,,,0,35,0.0,17,942579,6,44.67042922973633,-308.62421011939614,0.0507683651898706,22,-185.8975696449429,3.4028234663852886E38,,,,,0,,5,-24.020599365234375,
Raw,1354307,8124000000,,,-1317110508221052108,0.0,46.247452212016384,,,0,3,0.0,51,10411764,41,32.17985534667969,-788.930478853058,0.2059224079748403,17,-4750.334705898218,0.003747975919395685,,,,,0,,1,-18.699813842773438,
Raw,1354308,8124000000,,,-1317110508221052108,0.0,46.247452212016384,,,0,14,0.0,51,6302699,58,29.10455894470215,-414.9898992393046,0.29187077465340794,20,-2507.4822150150158,3.4028234663852886E38,,,,,0,,1,-18.699813842773438,
Raw,1354308,8124000000,,,-1317110508221052108,0.0,46.247452212016384,,,0,21,0.0,39,2275117934,20,38.440494537353516,-248.44195371072192,0.10196319377371266,17,-1497.3060394431857,0.001933485851623118,,,,,0,,1,-18.699813842773438,
Raw,1354308,8124000000,,,-1317110508221052108,0.0,46.247452212016384,,,0,22,0.0,39,2274981667,31,34.593658447265625,-529.0537587315637,0.1572364842068783,20,-3190.365878924667,3.4028234663852886E38,,,,,0,,1,-18.699813842773438,
Raw,1354309,8124000000,,,-1317110508221052108,0.0,46.247452212016384,,,0,27,0.0,51,8247234,24,36.86601257324219,403.03714765429845,0.12045084620927804,17,2424.3205761222207,0.0023177422117441893,,,,,0,,1,-18.699813842773438,
Raw,1354309,8124000000,,,-1317110508221052108,0.0,46.247452212016384,,,0,6,0.0,51,18171546,82,23.695545196533203,-731.0952767303706,4.2032687430144176,20,-1474.528914030322,3.4028234663852886E38,,,,,0,,3,-26.242238998413086,
Raw,1354309,8124000000,,,-1317110508221052108,0.0,46.247452212016384,,,0,19,0.0,51,13357777,6,42.574546813964844,-317.38916138091076,0.06406237463673939,17,-321.3754086759856,0.0012122845510020852,,,,,0,,5,-23.367218017578125,
Raw,1354310,8124000000,,,-1317110508221052108,0.0,46.247452212016384,,,0,35,0.0,16,12943599,1000000000,45.998634338378906,-308.5025016671532,2.99792458E8,20,-496.94988432114485,3.4028234663852886E38,,,,,0,,5,-23.367218017578125,
Fix,1354312,gps,41.413966,2.193701,110.858722,0.000000,24.000000
Fix,1355308,gps,41.413949,2.193706,102.831418,0.000000,16.000000
Raw,1355327,9124000000,,,-1317110508221052860,0.0,34.21297247847085,,,0,3,0.0,51,10414405,54,29.767654418945312,-788.1651232093818,0.27124108642249245,20,-5538.429155897954,3.4028234663852886E38,,,,,0,,1,-18.295745849609375,
Raw,1355331,9124000000,,,-1317110508221052860,0.0,34.21297247847085,,,0,14,0.0,51,6304030,33,33.948158264160156,-415.49401285373347,0.16759801696089793,17,-2923.1960348222365,0.0030576069839298725,,,,,0,,1,-18.295745849609375,
Raw,1355332,9124000000,,,-1317110508221052860,0.0,34.21297247847085,,,0,21,0.0,39,3275118699,15,40.443153381347656,-248.27805117730372,0.08152756585798882,20,-1745.5143394578495,3.4028234663852886E38,,,,,0,,1,-18.295745849609375,
Raw,1355333,9124000000,,,-1317110508221052860,0.0,34.21297247847085,,,0,22,0.0,39,3274983378,41,32.13157653808594,-528.9484439409082,0.20788199944848162,20,-3719.297427914436,3.4028234663852886E38,,,,,0,,1,-18.295745849609375,
Raw,1355334,9124000000,,,-1317110508221052860,0.0,34.21297247847085,,,0,27,0.0,51,8245912,27,35.64332580566406,402.48194443754187,0.13843325285381192,20,2827.268340799134,3.4028234663852886E38,,,,,0,,1,-18.295745849609375,
Raw,1355334,9124000000,,,-1317110508221052860,0.0,34.21297247847085,,,0,6,0.0,51,18173814,77,24.66427230834961,-730.8033945727093,4.203269009283609,20,-2206.620005017441,3.4028234663852886E38,,,,,0,,3,-26.11903190612793,
Raw,1355335,9124000000,,,-1317110508221052860,0.0,34.21297247847085,,,0,19,0.0,51,13358819,6,43.205101013183594,-317.4145868934768,0.05974499443435441,20,-637.8604290799794,3.4028234663852886E38,,,,,0,,5,-23.242238998413086,
Raw,1355337,9124000000,,,-1317110508221052860,0.0,34.21297247847085,,,0,35,0.0,17,944645,6,42.695579528808594,-308.4878462108484,0.06313485087059165,20,-806.5033206962742,3.4028234663852886E38,,,,,0,,5,-23.242238998413086,
Raw,1356007,9779000000,,,-1317110508221053355,0.0,24.341845064113915,,,0,3,0.0,51,5416135,55,29.649333953857422,-788.4150157806071,0.27763396008506813,20,-6054.367580200745,3.4028234663852886E38,,,,,0,,1,-18.3950138092041,
Raw,1356008,9779000000,,,-1317110508221053355,0.0,24.341845064113915,,,0,14,0.0,51,1304950,15,40.551353454589844,-415.3383582747938,0.0816646695289181,17,-3195.318018254562,0.0015163453062996268,,,,,0,,1,-18.3950138092041,
Raw,1356008,9779000000,,,-1317110508221053355,0.0,24.341845064113915,,,0,21,0.0,39,3930119242,15,40.87510681152344,-248.05199928441618,0.08040247867259764,17,-1907.965696707793,0.0014608661876991391,,,,,0,,1,-18.3950138092041,
Raw,1356010,9779000000,,,-1317110508221053355,0.0,24.341845064113915,,,0,22,0.0,39,3929984577,34,33.713687896728516,-528.6587771429208,0.17641234265174266,17,-4065.5851712529943,0.0031412679236382246,,,,,0,,1,-18.3950138092041,
Raw,1356011,9779000000,,,-1317110508221053355,0.0,24.341845064113915,,,0,27,0.0,51,3245024,23,37.19636535644531,402.9302650706429,0.11870881330698568,20,3090.474241577796,3.4028234663852886E38,,,,,0,,1,-18.3950138092041,
Raw,1356012,9779000000,,,-1317110508221053355,0.0,24.341845064113915,,,0,6,0.0,51,13175419,81,23.934019088745117,-730.5836308930502,4.205967381271126,20,-2685.704897262286,3.4028234663852886E38,,,,,0,,3,-25.877742767333984,
Raw,1356013,9779000000,,,-1317110508221053355,0.0,24.341845064113915,,,0,19,0.0,51,8359520,6,45.15083312988281,-316.3397284621169,0.05093507050608306,17,-845.3970427582847,9.011357906274498E-4,,,,,0,,5,-23.11903190612793,
Raw,1356014,9779000000,,,-1317110508221053355,0.0,24.341845064113915,,,0,35,0.0,17,945321,6,41.71721267700195,-308.11801747511936,0.07308289669327345,20,-8.31091007847283,3.4028234663852886E38,,,,,0,,5,-23.11903190612793,
Raw,1356951,10779000000,,,-1317110508221054098,0.0,19.8098916980691,,,0,3,0.0,51,5418721,66,26.812389373779297,-788.8209378377937,4.2045721307072235,20,-6842.70564393439,3.4028234663852886E38,,,,,0,,1,-19.679283142089844,
Raw,1356952,10779000000,,,-1317110508221054098,0.0,19.8098916980691,,,0,14,0.0,51,1306304,19,38.55486297607422,-415.23113486657303,0.10177816996921041,17,-3610.712548737321,0.0019081940408796072,,,,,0,,1,-19.679283142089844,
Raw,1356953,10779000000,,,-1317110508221054098,0.0,19.8098916980691,,,0,21,0.0,39,4930120047,21,37.70744705200195,-247.97706900375078,0.11340103652559008,17,-2155.987537424412,0.0021037461701780558,,,,,0,,1,-19.679283142089844,
Raw,1356956,10779000000,,,-1317110508221054098,0.0,19.8098916980691,,,0,22,0.0,39,4929986396,31,34.62593078613281,-528.6516879919641,0.15936229422336623,17,-4594.284805936404,0.0028280881233513355,,,,,0,,1,-19.679283142089844,
Raw,1356957,10779000000,,,-1317110508221054098,0.0,19.8098916980691,,,0,27,0.0,51,3243708,22,37.55485916137695,403.5973950746204,0.11407786784786106,17,3494.1324855362063,0.002018582308664918,,,,,0,,1,-19.679283142089844,
Raw,1356958,10779000000,,,-1317110508221054098,0.0,19.8098916980691,,,0,6,0.0,51,13177755,66,26.77104949951172,-730.2960431249107,4.205967913809509,20,-3416.5295370929916,3.4028234663852886E38,,,,,0,,3,-26.753320693969727,
Raw,1356958,10779000000,,,-1317110508221054098,0.0,19.8098916980691,,,0,6,0.0,17,921574,43,33.460262298583984,-318.12950050149925,299.79712653964043,22,-326.5729786749072,3.4028234663852886E38,,,,,0,,5,-23.88593292236328,
Raw,1356960,10779000000,,,-1317110508221054098,0.0,19.8098916980691,,,0,19,0.0,51,8360575,6,43.88121032714844,-316.84598927130673,0.058149214045995934,17,-1162.2551989514764,0.0010429688263684511,,,,,0,,5,-23.88593292236328,
Raw,1356960,10779000000,,,-1317110508221054098,0.0,19.8098916980691,,,0,35,0.0,17,946340,6,44.05059814453125,-308.0617473394002,0.05705023788320451,17,-316.43467952698114,0.001022826530970633,,,,,0,,5,-23.88593292236328,
Fix,1356954,gps,41.413934,2.193704,96.408012,0.000000,8.000000
Fix,1357983,gps,41.413942,2.193714,94.344260,0.000000,8.000000
Raw,1358005,11779000000,,,-1317110508221054844,0.0,17.115813268722285,,,0,3,0.0,51,5421405,59,29.069684982299805,-788.3559849659096,0.29288189862480096,20,-7630.90413471656,3.4028234663852886E38,,,,,0,,1,-18.597021102905273,
Raw,1358005,11779000000,,,-1317110508221054844,0.0,17.115813268722285,,,0,14,0.0,51,1307778,25,36.1984748840332,-415.4465359917972,0.12870609812783002,20,-4025.9666911704594,3.4028234663852886E38,,,,,0,,1,-18.597021102905273,
Raw,1358006,11779000000,,,-1317110508221054844,0.0,17.115813268722285,,,0,21,0.0,39,5930120933,15,40.4771842956543,-247.84070509520302,0.08032040951520397,17,-2404.104384316531,0.00152934854850173,,,,,0,,1,-18.597021102905273,
Raw,1358007,11779000000,,,-1317110508221054844,0.0,17.115813268722285,,,0,22,0.0,39,5929988116,31,34.62498092651367,-528.3319604673236,0.1557819388223748,20,-5122.838896417759,3.4028234663852886E38,,,,,0,,1,-18.597021102905273,
Raw,1358007,11779000000,,,-1317110508221054844,0.0,17.115813268722285,,,0,27,0.0,51,3242337,25,36.442840576171875,403.92424583267416,0.1254901071527852,20,3897.8568043953314,3.4028234663852886E38,,,,,0,,1,-18.597021102905273,
Raw,1358011,11779000000,,,-1317110508221054844,0.0,17.115813268722285,,,0,6,0.0,51,13180365,95,30.912126541137695,-730.3751825889567,0.2384849999520866,20,-4145.706143938439,3.4028234663852886E38,,,,,0,,3,-26.367218017578125,
Raw,1358013,11779000000,,,-1317110508221054844,0.0,17.115813268722285,,,0,6,0.0,17,922870,34,29.44232940673828,-329.74555149851653,299.793513799249,20,-661.7517431277911,3.4028234663852886E38,,,,,0,,5,-23.367218017578125,
Raw,1358013,11779000000,,,-1317110508221054844,0.0,17.115813268722285,,,0,19,0.0,51,8361617,6,44.55857849121094,-317.09973316011906,0.050572187202514635,20,-1479.1210323178775,3.4028234663852886E38,,,,,0,,5,-23.367218017578125,
Raw,1358014,11779000000,,,-1317110508221054844,0.0,17.115813268722285,,,0,35,0.0,17,947361,6,44.1771125793457,-308.13311600335896,0.05270065575046229,20,-624.6696905654712,3.4028234663852886E38,,,,,0,,5,-23.367218017578125,
Raw,1358971,12779000000,,,-1317110508221055589,0.0,15.330595330351684,,,0,3,0.0,51,5423955,65,28.220008850097656,-787.7658813136736,0.3228807509745253,20,-8419.223118681844,3.4028234663852886E38,,,,,0,,1,-21.100547790527344,
Raw,1358973,12779000000,,,-1317110508221055589,0.0,15.330595330351684,,,0,14,0.0,39,921309103,39,32.458763122558594,-415.02960530115365,0.19783696091230907,20,-4441.095049619847,3.4028234663852886E38,,,,,0,,1,-21.100547790527344,
Raw,1358974,12779000000,,,-1317110508221055589,0.0,15.330595330351684,,,0,21,0.0,39,930121704,18,39.21271896362305,-247.97509222127246,0.0926220128827569,17,-2652.159646407443,0.0017690081149339676,,,,,0,,1,-21.100547790527344,
Raw,1358974,12779000000,,,-1317110508221055589,0.0,15.330595330351684,,,0,22,0.0,39,929989930,38,32.8817138671875,-528.3439234095631,0.19000689928815628,20,-5650.79049203231,3.4028234663852886E38,,,,,0,,1,-21.100547790527344,
Raw,1358975,12779000000,,,-1317110508221055589,0.0,15.330595330351684,,,0,27,0.0,39,923240977,33,33.939048767089844,403.33059760495985,0.16722166210041778,20,4301.427094022844,3.4028234663852886E38,,,,,0,,1,-21.100547790527344,
Raw,1358976,12779000000,,,-1317110508221055589,0.0,15.330595330351684,,,0,6,0.0,51,13182665,122,28.74182891845703,-729.6694030792823,0.3055068193582353,20,-4874.786357643204,3.4028234663852886E38,,,,,0,,3,-27.437602996826172,
Raw,1358977,12779000000,,,-1317110508221055589,0.0,15.330595330351684,,,0,6,0.0,17,923968,84,24.35406494140625,-329.8333479065193,299.793513799249,20,-1.6409520350508728,3.4028234663852886E38,,,,,0,,5,-24.653860092163086,
Raw,1358978,12779000000,,,-1317110508221055589,0.0,15.330595330351684,,,0,19,0.0,51,8362706,166,37.35596466064453,-316.9052245807434,0.11394666370370782,20,-1795.9108514511,3.4028234663852886E38,,,,,1,,5,-24.653860092163086,
Raw,1358978,12779000000,,,-1317110508221055589,0.0,15.330595330351684,,,0,35,0.0,17,948399,6,41.95841979980469,-308.04927316031285,0.06762200680580455,17,-932.7475702031631,0.0013014002470299602,,,,,0,,5,-24.653860092163086,
Fix,1358971,gps,41.413951,2.193725,92.072358,0.000000,8.000000
Raw,1359981,13779000000,,,-1317110508221056332,0.0,13.778995304152039,,,0,3,0.0,51,5426628,46,31.098112106323242,-787.9347939682007,0.232088232102584,20,-9207.161591246708,3.4028234663852886E38,,,,,0,,1,-18.3950138092041,
Raw,1359982,13779000000,,,-1317110508221056332,0.0,13.778995304152039,,,0,14,0.0,39,1921310512,30,34.775978088378906,-415.11085787750403,0.15156726363973128,20,-4856.318862849038,3.4028234663852886E38,,,,,0,,1,-18.3950138092041,
Raw,1359983,13779000000,,,-1317110508221056332,0.0,13.778995304152039,,,0,21,0.0,16431,460921930122592,21,38.013832092285156,-246.9723352266866,0.10606135122230126,17,-2899.7160595876335,0.0020308324601501226,,,,,0,,1,-18.3950138092041,
Raw,1359984,13779000000,,,-1317110508221056332,0.0,13.778995304152039,,,0,22,0.0,39,1929991642,31,34.52588653564453,-528.4928637445678,0.1575494337161124,20,-6179.021633932336,3.4028234663852886E38,,,,,0,,1,-18.3950138092041,
Raw,1359985,13779000000,,,-1317110508221056332,0.0,13.778995304152039,,,0,27,0.0,39,1923239654,31,34.64098358154297,404.0527707762217,0.1542846405907975,20,4705.58394447129,3.4028234663852886E38,,,,,0,,1,-18.3950138092041,
Raw,1359986,13779000000,,,-1317110508221056332,0.0,13.778995304152039,,,0,6,0.0,51,13185191,118,29.073284149169922,-730.064895904773,0.2941575277543842,20,-5604.497691200493,3.4028234663852886E38,,,,,0,,3,-26.367218017578125,
Raw,1359986,13779000000,,,-1317110508221056332,0.0,13.778995304152039,,,0,6,0.0,17,924878,166,27.449201583862305,-329.61188010403407,4.20142562767027,20,-332.90150871000066,3.4028234663852886E38,,,,,1,,5,-23.11903190612793,
Raw,1359987,13779000000,,,-1317110508221056332,0.0,13.778995304152039,,,0,19,0.0,51,8363737,6,43.273040771484375,-316.05289050802094,0.05839971926934737,20,-2112.9703136685093,3.4028234663852886E38,,,,,0,,5,-23.11903190612793,
Raw,1359988,13779000000,,,-1317110508221056332,0.0,13.778995304152039,,,0,35,0.0,51,7949419,7,41.013179779052734,-307.17052518378523,0.07523213839862081,20,-1240.1135210437478,3.4028234663852886E38,,,,,0,,5,-23.11903190612793,
Fix,1359991,gps,41.413958,2.193722,91.122448,0.000000,6.000000
Raw,1360967,14779000000,,,-1317110508221057075,0.0,12.321204771831196,,,0,3,0.0,51,5429274,29,35.01561737060547,-788.3145406987778,0.1481900549900943,20,-9995.10341580342,3.4028234663852886E38,,,,,0,,1,-19.123600006103516,
Raw,1360968,14779000000,,,-1317110508221057075,0.0,12.321204771831196,,,0,14,0.0,39,2921311834,31,34.53142547607422,-414.30286508071777,0.15588884590279595,20,-5271.420294964923,3.4028234663852886E38,,,,,0,,1,-19.123600006103516,
Raw,1360969,14779000000,,,-1317110508221057075,0.0,12.321204771831196,,,0,21,0.0,16431,460922930123369,20,38.325592041015625,-246.8682644456942,0.10238640369099944,20,-3146.859164879885,3.4028234663852886E38,,,,,0,,1,-19.123600006103516,
Raw,1360970,14779000000,,,-1317110508221057075,0.0,12.321204771831196,,,0,22,0.0,39,2929993409,29,35.19818115234375,-529.4368455428801,0.14594913347371952,20,-6708.4749416207615,3.4028234663852886E38,,,,,0,,1,-19.123600006103516,
Raw,1360971,14779000000,,,-1317110508221057075,0.0,12.321204771831196,,,0,27,0.0,39,2923238330,17,39.75685501098633,403.2776675499799,0.08587003361076839,20,5109.3002084075515,3.4028234663852886E38,,,,,0,,1,-19.123600006103516,
Raw,1360971,14779000000,,,-1317110508221057075,0.0,12.321204771831196,,,0,6,0.0,51,13187667,121,28.819196701049805,-731.2245174055051,0.30281959739311604,20,-6335.141267430534,3.4028234663852886E38,,,,,0,,3,-26.242238998413086,
Raw,1360972,14779000000,,,-1317110508221057075,0.0,12.321204771831196,,,0,6,0.0,17,925942,13,35.621490478515625,-324.39348110337005,0.1387203908932868,20,-660.908183210076,3.4028234663852886E38,,,,,0,,5,-23.11903190612793,
Raw,1360973,14779000000,,,-1317110508221057075,0.0,12.321204771831196,,,0,19,0.0,51,8364786,6,46.45380783081055,-316.3401715340517,0.040953803441294984,17,-2429.1853345305153,8.175609982572496E-4,,,,,0,,5,-23.11903190612793,
Raw,1360975,14779000000,,,-1317110508221057075,0.0,12.321204771831196,,,0,35,0.0,51,7950450,9,39.144474029541016,-307.56932400755863,0.09294769338771364,20,-1547.6476307228324,3.4028234663852886E38,,,,,0,,5,-23.11903190612793,
Fix,1360978,gps,41.413947,2.193720,90.356534,1.056204,6.000000
Fix,1361987,gps,41.413924,2.193693,89.645081,2.716949,6.000000
Raw,1362010,15779000000,,,-1317110508221057818,0.0,11.719065808688516,,,0,3,0.0,51,5431931,33,33.93029022216797,-789.4418520307263,0.1677839227820973,20,-10784.696194641521,3.4028234663852886E38,,,,,0,,1,-18.100547790527344,
Raw,1362011,15779000000,,,-1317110508221057818,0.0,11.719065808688516,,,0,14,0.0,39,3921313291,24,36.81163787841797,-414.6159124438798,0.11995061792832545,20,-5686.551998249724,3.4028234663852886E38,,,,,0,,1,-18.100547790527344,
Raw,1362011,15779000000,,,-1317110508221057818,0.0,11.719065808688516,,,0,21,0.0,16431,460923930124231,23,37.11375427246094,-247.08632400252714,0.1174431775929991,20,-3393.834301573644,3.4028234663852886E38,,,,,0,,1,-18.100547790527344,
Raw,1362013,15779000000,,,-1317110508221057818,0.0,11.719065808688516,,,0,22,0.0,39,3929995231,27,35.665367126464844,-530.3797707850401,0.13840079297517532,20,-7239.088884008775,3.4028234663852886E38,,,,,0,,1,-18.100547790527344,
Raw,1362014,15779000000,,,-1317110508221057818,0.0,11.719065808688516,,,0,27,0.0,39,3923237004,19,38.74113845825195,403.27385031484937,0.09644977396729149,20,5512.318075209856,3.4028234663852886E38,,,,,0,,1,-18.100547790527344,
Raw,1362015,15779000000,,,-1317110508221057818,0.0,11.719065808688516,,,0,6,0.0,51,13190130,113,29.426612854003906,-731.4572324186429,0.2825271890188157,20,-7066.232474914255,3.4028234663852886E38,,,,,0,,3,-26.494020462036133,
Raw,1362015,15779000000,,,-1317110508221057818,0.0,11.719065808688516,,,0,6,0.0,17,927026,17,33.57381057739258,-321.7261880558949,0.17522110421406722,20,-984.2766324829273,3.4028234663852886E38,,,,,0,,5,-23.367218017578125,
Raw,1362016,15779000000,,,-1317110508221057818,0.0,11.719065808688516,,,0,19,0.0,16431,460909928365839,6,44.03300857543945,-316.1588869478069,0.05363364219549363,17,-2745.3595488278293,0.0010249001206830144,,,,,0,,5,-23.367218017578125,
Raw,1362023,15779000000,,,-1317110508221057818,0.0,11.719065808688516,,,0,35,0.0,51,7951476,10,38.063072204589844,-307.4427076815764,0.1050815804482173,20,-1855.6312459266132,3.4028234663852886E38,,,,,0,,5,-23.367218017578125,
Fix,1362947,gps,41.413887,2.193664,89.225705,4.189226,6.000000
Raw,1362967,16779000000,,,-1317110508221058561,0.0,11.299599994594475,,,0,3,0.0,51,5434476,46,31.124492645263672,-788.5473238768286,0.23138880950358953,20,-11574.144877740298,3.4028234663852886E38,,,,,0,,1,-20.44996452331543,
Raw,1362967,16779000000,,,-1317110508221058561,0.0,11.299599994594475,,,0,14,0.0,39,4921314613,24,36.70151901245117,-414.9686999513474,0.12147827084774337,20,-6101.586517313645,3.4028234663852886E38,,,,,0,,1,-20.44996452331543,
Raw,1362968,16779000000,,,-1317110508221058561,0.0,11.299599994594475,,,0,21,0.0,16431,460924930125037,18,39.18662643432617,-246.34670061352563,0.09289581249991585,17,-3640.5292956976323,0.0017743302742019296,,,,,0,,1,-20.44996452331543,
Raw,1362969,16779000000,,,-1317110508221058561,0.0,11.299599994594475,,,0,22,0.0,39,4929996988,22,37.3848762512207,-530.535698023632,0.11386697432721393,20,-7769.943501137695,3.4028234663852886E38,,,,,0,,1,-20.44996452331543,
Raw,1362970,16779000000,,,-1317110508221058561,0.0,11.299599994594475,,,0,27,0.0,39,4923235652,14,41.05986404418945,403.6010759799249,0.07398862799027245,20,5915.180931706179,3.4028234663852886E38,,,,,0,,1,-20.44996452331543,
Raw,1362970,16779000000,,,-1317110508221058561,0.0,11.299599994594475,,,0,6,0.0,51,13192663,107,29.903566360473633,-731.1726439066774,0.2675587166374752,20,-7797.573572270321,3.4028234663852886E38,,,,,0,,3,-27.020599365234375,
Raw,1362971,16779000000,,,-1317110508221058561,0.0,11.299599994594475,,,0,6,0.0,51,7928117,17,33.37769317626953,-322.63830275735836,0.17918997964922934,20,-1305.363613711135,3.4028234663852886E38,,,,,0,,5,-23.88593292236328,
Raw,1362972,16779000000,,,-1317110508221058561,0.0,11.299599994594475,,,0,19,0.0,16431,460910928366889,6,44.43334197998047,-315.8784564955372,0.05128573455003144,17,-3061.3586056800677,9.787343442440033E-4,,,,,0,,5,-23.88593292236328,
Raw,1362973,16779000000,,,-1317110508221058561,0.0,11.299599994594475,,,0,35,0.0,51,7952501,8,39.762245178222656,-307.21401439830834,0.08666511341683958,20,-2162.9642544154294,3.4028234663852886E38,,,,,0,,5,-23.88593292236328,
Fix,1363975,gps,41.413849,2.193627,85.859693,5.687251,6.000000
Raw,1363999,17779000000,,,-1317110508221059313,0.0,10.238662319646217,,,0,3,0.0,51,5437112,62,28.558971405029297,-787.0879812534349,0.3105629051862857,20,-12362.960404938616,3.4028234663852886E38,,,,,0,,1,-18.601774215698242,
Raw,1364000,17779000000,,,-1317110508221059313,0.0,10.238662319646217,,,0,14,0.0,39,5921316077,15,40.56812286376953,-415.3728497207949,0.07791906913181179,20,-6515.297622051107,3.4028234663852886E38,,,,,0,,1,-18.601774215698242,
Raw,1364000,17779000000,,,-1317110508221059313,0.0,10.238662319646217,,,0,21,0.0,16431,460925930125840,17,39.53411865234375,-246.26861770563187,0.08932427726589565,20,-3887.02175579177,3.4028234663852886E38,,,,,0,,1,-18.601774215698242,
Raw,1364001,17779000000,,,-1317110508221059313,0.0,10.238662319646217,,,0,22,0.0,39,5929998741,18,39.090065002441406,-531.4646153761612,0.09389120162626868,17,-8301.219276415728,0.0017941651167348027,,,,,0,,1,-18.601774215698242,
Raw,1364003,17779000000,,,-1317110508221059313,0.0,10.238662319646217,,,0,27,0.0,39,5923234313,16,40.08443069458008,403.5759912919241,0.08271272170881899,20,6318.103025106921,3.4028234663852886E38,,,,,0,,1,-18.601774215698242,
Raw,1364005,17779000000,,,-1317110508221059313,0.0,10.238662319646217,,,0,6,0.0,99,1933195050,100,30.43518829345703,-731.4234226217723,0.2518151179976079,17,-8529.000971566327,0.004512053914368153,,,,,0,,3,-26.11903190612793,
Raw,1364006,17779000000,,,-1317110508221059313,0.0,10.238662319646217,,,0,6,0.0,51,7929193,22,31.397279739379883,-323.3070005543359,0.22471375706523222,20,-1629.4039077111247,3.4028234663852886E38,,,,,0,,5,-23.367218017578125,
Raw,1364008,17779000000,,,-1317110508221059313,0.0,10.238662319646217,,,0,19,0.0,16431,460911928367954,6,45.09958267211914,-315.7718124890773,0.04761031272673211,17,-3377.1721734179255,9.064686018973589E-4,,,,,0,,5,-23.367218017578125,
Raw,1364009,17779000000,,,-1317110508221059313,0.0,10.238662319646217,,,0,35,0.0,51,7953529,7,40.73534393310547,-306.9545446568002,0.07763175635317993,20,-2470.006650309029,3.4028234663852886E38,,,,,0,,5,-23.367218017578125,
Fix,1364978,gps,41.413804,2.193563,85.910739,6.668666,6.000000
Raw,1364995,18779000000,,,-1317110508221060056,0.0,10.300867434960244,,,0,3,0.0,51,5439783,65,26.955543518066406,-780.7838174353237,4.2009785616976,20,-13146.892950061496,3.4028234663852886E38,,,,,0,,1,-19.436870574951172,
Raw,1364996,18779000000,,,-1317110508221060056,0.0,10.300867434960244,,,0,14,0.0,39,921317327,166,35.961463928222656,-412.781390139083,0.13226163224761844,20,-6929.031866888952,3.4028234663852886E38,,,,,1,,1,-19.436870574951172,
Raw,1364996,18779000000,,,-1317110508221060056,0.0,10.300867434960244,,,0,21,0.0,16431,460926930126691,12,42.78947067260742,-246.7040551701673,0.061974204266755595,17,-4133.6158293372,0.0011719042668119073,,,,,0,,1,-19.436870574951172,
Raw,1364997,18779000000,,,-1317110508221060056,0.0,10.300867434960244,,,0,22,0.0,39,930000536,22,37.282955169677734,-532.0346103790487,0.11519037381394986,17,-8832.993455861859,0.002209113212302327,,,,,0,,1,-19.436870574951172,
Raw,1364998,18779000000,,,-1317110508221060056,0.0,10.300867434960244,,,0,27,0.0,39,923232944,20,38.340232849121094,404.07110713783095,0.10097759836106279,20,6721.149957990858,3.4028234663852886E38,,,,,0,,1,-19.436870574951172,
Raw,1364998,18779000000,,,-1317110508221060056,0.0,10.300867434960244,,,0,6,0.0,99,933197431,84,31.95145606994629,-731.653206543649,0.21186016102170024,17,-9260.569319391203,0.0037893166299909353,,,,,0,,3,-27.020599365234375,
Raw,1364999,18779000000,,,-1317110508221060056,0.0,10.300867434960244,,,0,6,0.0,51,7930211,31,28.640607833862305,-321.9884184763814,0.3081152922099435,20,-1952.2893038708587,3.4028234663852886E38,,,,,0,,5,-23.753320693969727,
Raw,1365000,18779000000,,,-1317110508221060056,0.0,10.300867434960244,,,0,19,0.0,16431,460912928368997,6,45.26622009277344,-315.72644873944546,0.04673442022101504,17,-3692.9164816293783,8.892440237104893E-4,,,,,0,,5,-23.753320693969727,
Raw,1365001,18779000000,,,-1317110508221060056,0.0,10.300867434960244,,,0,35,0.0,51,7954557,7,41.382469177246094,-307.22478445456954,0.07216102282653464,17,-2777.20526114597,0.001390619669109583,,,,,0,,5,-23.753320693969727,
Raw,1365964,19779000000,,,-1317110508221060800,0.0,10.86353989355699,,,0,3,0.0,51,5442289,76,24.74701690673828,-779.5995202360691,4.200978827966791,20,-13926.505261604065,3.4028234663852886E38,,,,,0,,1,-19.23285675048828,
Raw,1365965,19779000000,,,-1317110508221060800,0.0,10.86353989355699,,,0,14,0.0,39,1921318596,166,31.409744262695312,-410.17312790630535,0.22320446007820915,20,-7340.3570871460315,3.4028234663852886E38,,,,,1,,1,-19.23285675048828,
Raw,1365966,19779000000,,,-1317110508221060800,0.0,10.86353989355699,,,0,21,0.0,16431,460927930127522,14,41.17021179199219,-246.37906190599404,0.0743016107831555,17,-4380.1133310622345,0.0014120666310191154,,,,,0,,1,-19.23285675048828,
Raw,1365967,19779000000,,,-1317110508221060800,0.0,10.86353989355699,,,0,22,0.0,16431,460927930002333,20,38.182289123535156,-532.0818486637893,0.10403754726892689,17,-9365.095142115086,0.0019918254110962152,,,,,0,,1,-19.23285675048828,
Raw,1365967,19779000000,,,-1317110508221060800,0.0,10.86353989355699,,,0,27,0.0,39,1923231515,166,33.81938552856445,406.74204700815403,0.16953161390471083,20,7125.17034508192,3.4028234663852886E38,,,,,1,,1,-19.23285675048828,
Raw,1365968,19779000000,,,-1317110508221060800,0.0,10.86353989355699,,,0,6,0.0,99,1933199892,80,32.432159423828125,-731.6564102945622,0.20058193000835323,17,-9992.204129774089,0.003585301572456956,,,,,0,,3,-26.11903190612793,
Raw,1365969,19779000000,,,-1317110508221060800,0.0,10.86353989355699,,,0,6,0.0,51,7931326,20,32.41865539550781,-321.1643387601164,0.1999426509630079,20,-2273.5574985478247,3.4028234663852886E38,,,,,0,,5,-23.11903190612793,
Raw,1365969,19779000000,,,-1317110508221060800,0.0,10.86353989355699,,,0,19,0.0,16431,460913928370057,6,45.753379821777344,-315.4412808257191,0.044267706590632755,17,-4008.503503695056,8.407423738390207E-4,,,,,0,,5,-23.11903190612793,
Raw,1365970,19779000000,,,-1317110508221060800,0.0,10.86353989355699,,,0,35,0.0,51,7955583,7,40.9241943359375,-307.15188208006725,0.0759931856736426,17,-3084.333268616887,0.0014659602893516421,,,,,0,,5,-23.11903190612793,
Fix,1365971,gps,41.413758,2.193487,85.734037,7.392275,12.000000
Fix,1366961,gps,41.413705,2.193410,84.751833,8.142941,12.000000
Raw,1366979,20779000000,,,-1317110508221061547,0.0,10.984512929314462,,,0,3,0.0,51,5444885,79,24.11272430419922,-779.8528210529466,4.200979360505174,20,-14705.112363111171,3.4028234663852886E38,,,,,0,,1,-18.3950138092041,
Raw,1366980,20779000000,,,-1317110508221061547,0.0,10.984512929314462,,,0,14,0.0,39,2921320090,166,27.805747985839844,-407.6635684676178,4.20023753453742,20,-7747.572727562562,3.4028234663852886E38,,,,,1,,1,-18.3950138092041,
Raw,1366981,20779000000,,,-1317110508221061547,0.0,10.984512929314462,,,0,21,0.0,16431,460928930128354,14,41.22256088256836,-246.4058847992775,0.07386626065491492,20,-4626.557734635502,3.4028234663852886E38,,,,,0,,1,-18.3950138092041,
Raw,1366981,20779000000,,,-1317110508221061547,0.0,10.984512929314462,,,0,22,0.0,16431,460928930004069,20,38.13050842285156,-532.5566854480651,0.10464915928108415,17,-9897.49729150574,0.0020037353970110416,,,,,0,,1,-18.3950138092041,
Raw,1366983,20779000000,,,-1317110508221061547,0.0,10.984512929314462,,,0,27,0.0,39,2923230157,45,31.4191837310791,408.0416110753688,0.223306124983921,20,7531.493930038062,3.4028234663852886E38,,,,,0,,1,-18.3950138092041,
Raw,1366983,20779000000,,,-1317110508221061547,0.0,10.984512929314462,,,0,6,0.0,99,933202392,73,33.159873962402344,-731.9105972553093,0.18465295808566973,20,-10723.96557567132,3.4028234663852886E38,,,,,0,,3,-26.11903190612793,
Raw,1366984,20779000000,,,-1317110508221061547,0.0,10.984512929314462,,,0,6,0.0,51,7932405,17,33.480506896972656,-320.6173494153818,0.1770990342550145,17,-2594.2519284189,0.003256343537941575,,,,,0,,5,-23.11903190612793,
Raw,1366985,20779000000,,,-1317110508221061547,0.0,10.984512929314462,,,0,19,0.0,16431,460914928371113,6,46.13471221923828,-315.5413810005266,0.042431152285784035,17,-4324.029927316721,8.046302828006446E-4,,,,,0,,5,-23.11903190612793,
Raw,1366986,20779000000,,,-1317110508221061547,0.0,10.984512929314462,,,0,35,0.0,51,7956604,6,42.9630126953125,-307.0120758434107,0.060393963181999744,17,-3391.4268485262955,0.001159260980784893,,,,,0,,5,-23.11903190612793,
Fix,1367942,gps,41.413646,2.193330,84.586888,8.756955,6.000000
Raw,1367963,21779000000,,,-1317110508221062292,0.0,11.09653430716743,,,0,3,0.0,51,5447668,81,23.753467559814453,-779.8635911092078,4.200979893043558,20,-15483.537530450021,3.4028234663852886E38,,,,,0,,1,-18.00457000732422,
Raw,1367963,21779000000,,,-1317110508221062292,0.0,11.09653430716743,,,0,14,0.0,39,3921321387,66,26.603700637817383,-414.3490468093062,4.200237800806612,20,-8157.222183756709,3.4028234663852886E38,,,,,0,,1,-18.00457000732422,
Raw,1367964,21779000000,,,-1317110508221062292,0.0,11.09653430716743,,,0,21,0.0,16431,460929930129148,11,43.335140228271484,-246.1667452430852,0.058311962768439696,17,-4872.941143879955,0.0011005473788827658,,,,,0,,1,-18.00457000732422,
Raw,1367965,21779000000,,,-1317110508221062292,0.0,11.09653430716743,,,0,22,0.0,16431,460929930005861,22,37.562110900878906,-532.7363340763968,0.11160497594014279,17,-10430.111556893717,0.0021392435301095247,,,,,0,,1,-18.00457000732422,
Raw,1367965,21779000000,,,-1317110508221062292,0.0,11.09653430716743,,,0,27,0.0,39,3923228796,53,30.00232696533203,406.3517347160548,0.2627683008953282,20,7940.108392785851,3.4028234663852886E38,,,,,0,,1,-18.00457000732422,
Raw,1367966,21779000000,,,-1317110508221062292,0.0,11.09653430716743,,,0,6,0.0,99,1933204708,74,33.06252670288086,-731.7258021760426,0.18670775743712698,20,-11455.840838713832,3.4028234663852886E38,,,,,0,,3,-25.877742767333984,
Raw,1367967,21779000000,,,-1317110508221062292,0.0,11.09653430716743,,,0,6,0.0,51,7933469,16,34.377750396728516,-320.0329716158417,0.15985828715999018,17,-2914.4707223049118,0.0029367574024945498,,,,,0,,5,-22.997549057006836,
Raw,1367967,21779000000,,,-1317110508221062292,0.0,11.09653430716743,,,0,19,0.0,16431,460915928372165,6,45.68477249145508,-315.34823571941183,0.04460718732853458,17,-4639.4854352391,8.474094793200493E-4,,,,,0,,5,-22.997549057006836,
Raw,1367970,21779000000,,,-1317110508221062292,0.0,11.09653430716743,,,0,35,0.0,16431,460915927957629,6,42.77660369873047,-306.9506592567566,0.0616732160688622,17,-3698.475895712243,0.0011844090186059475,,,,,0,,5,-22.997549057006836,
Fix,1368981,gps,41.413582,2.193244,83.982210,9.180450,12.000000
Raw,1368998,22779000000,,,-1317110508221063038,0.0,11.167740387670086,,,0,3,0.0,51,5450350,166,22.95817756652832,-779.8400060492941,4.200980425581941,20,-16262.597803612818,3.4028234663852886E38,,,,,1,,1,-19.357545852661133,
Raw,1368999,22779000000,,,-1317110508221063038,0.0,11.167740387670086,,,0,14,0.0,39,4921322789,53,29.968997955322266,-418.7994317346852,0.2634334413359062,20,-8573.356651759388,3.4028234663852886E38,,,,,0,,1,-19.357545852661133,
Raw,1369000,22779000000,,,-1317110508221063038,0.0,11.167740387670086,,,0,21,0.0,16431,460930930129986,13,42.08885955810547,-246.25150831245742,0.06702780630250324,17,-5119.155914188069,0.0012703482061624527,,,,,0,,1,-19.357545852661133,
Raw,1369002,22779000000,,,-1317110508221063038,0.0,11.167740387670086,,,0,22,0.0,16431,460930930007647,22,37.61745834350586,-532.7962510349639,0.11090783327110126,17,-10962.888092807494,0.0021256550680845976,,,,,0,,1,-19.357545852661133,
Raw,1369002,22779000000,,,-1317110508221063038,0.0,11.167740387670086,,,0,27,0.0,39,4923227480,63,27.22966194152832,406.5401084532564,4.200580489256181,20,8347.984934531933,3.4028234663852886E38,,,,,0,,1,-19.357545852661133,
Raw,1369003,22779000000,,,-1317110508221063038,0.0,11.167740387670086,,,0,6,0.0,99,933207159,87,31.715925216674805,-731.6071952273433,0.2176201627413531,20,-12187.941284371902,3.4028234663852886E38,,,,,0,,3,-26.367218017578125,
Raw,1369004,22779000000,,,-1317110508221063038,0.0,11.167740387670086,,,0,6,0.0,51,7934534,14,35.477073669433594,-319.7840333533991,0.14102380246056156,17,-3234.309126889366,0.002587628783658147,,,,,0,,5,-23.367218017578125,
Raw,1369004,22779000000,,,-1317110508221063038,0.0,11.167740387670086,,,0,19,0.0,16431,460916928373215,6,45.0064697265625,-315.5243397722652,0.0481081820290655,17,-4954.974772602556,9.162381174974144E-4,,,,,0,,5,-23.367218017578125,
Raw,1369005,22779000000,,,-1317110508221063038,0.0,11.167740387670086,,,0,35,0.0,16431,460916927958647,6,42.4281005859375,-306.7953114199256,0.06413963846731618,17,-4005.407189502173,0.001232897280715406,,,,,0,,5,-23.367218017578125,
Fix,1369990,gps,41.413520,2.193162,84.446779,9.321896,12.000000
Raw,1370003,23779000000,,,-1317110508221063780,0.0,11.456617450324051,,,0,3,0.0,51,5453036,166,23.94904136657715,-780.2087782288709,4.200980958120324,20,-17041.766780820202,3.4028234663852886E38,,,,,1,,1,-19.23285675048828,
Raw,1370004,23779000000,,,-1317110508221063780,0.0,11.456617450324051,,,0,14,0.0,39,5921324173,61,27.53900909423828,-414.0188900529697,4.200238333344995,20,-8992.561001045395,3.4028234663852886E38,,,,,0,,1,-19.23285675048828,
Raw,1370006,23779000000,,,-1317110508221063780,0.0,11.456617450324051,,,0,21,0.0,16431,460931930130809,13,42.18113327026367,-245.95761528986122,0.06633893045976919,20,-5365.346093106085,3.4028234663852886E38,,,,,0,,1,-19.23285675048828,
Raw,1370007,23779000000,,,-1317110508221063780,0.0,11.456617450324051,,,0,22,0.0,16431,460931930009432,20,38.0845947265625,-532.2006941896843,0.10519522746755045,20,-11495.872163473383,3.4028234663852886E38,,,,,0,,1,-19.23285675048828,
Raw,1370007,23779000000,,,-1317110508221063780,0.0,11.456617450324051,,,0,27,0.0,39,5923226221,68,26.31420135498047,404.98570985862057,4.200580222986989,20,8754.500456928574,3.4028234663852886E38,,,,,0,,1,-19.23285675048828,
Raw,1370008,23779000000,,,-1317110508221063780,0.0,11.456617450324051,,,0,6,0.0,99,1933209719,115,29.273447036743164,-731.9864648035291,0.287514743813682,20,-12920.14885441813,3.4028234663852886E38,,,,,0,,3,-26.753320693969727,
Raw,1370009,23779000000,,,-1317110508221063780,0.0,11.456617450324051,,,0,6,0.0,51,7935610,13,35.905029296875,-319.42347504584427,0.13431272879313022,17,-3553.7979509285137,0.0024632252752780914,,,,,0,,5,-23.494020462036133,
Raw,1370010,23779000000,,,-1317110508221063780,0.0,11.456617450324051,,,0,19,0.0,16431,460917928374270,6,45.506561279296875,-315.5051172667863,0.04550101972103465,17,-5270.422009147673,8.649753290228546E-4,,,,,0,,5,-23.494020462036133,
Raw,1370011,23779000000,,,-1317110508221063780,0.0,11.456617450324051,,,0,35,0.0,16431,460917927959675,6,43.582557678222656,-306.97693683073567,0.056335317585168604,17,-4312.333810699596,0.0010794535046443343,,,,,0,,5,-23.494020462036133,
Fix,1370975,gps,41.413453,2.193089,84.565569,0.000000,16.000000
Raw,1370995,24779000000,,,-1317110508221064521,0.0,12.074314452164835,,,0,3,0.0,51,5455729,166,22.08216094970703,-780.6262883212753,4.200981490658707,20,-17822.226869130085,3.4028234663852886E38,,,,,1,,1,-18.197599411010742,
Raw,1370996,24779000000,,,-1317110508221064521,0.0,12.074314452164835,,,0,14,0.0,39,921325575,61,27.546415328979492,-414.4880350670062,4.200238333344995,20,-9407.16379893028,3.4028234663852886E38,,,,,0,,1,-18.197599411010742,
Raw,1370997,24779000000,,,-1317110508221064521,0.0,12.074314452164835,,,0,21,0.0,16431,460932930131601,16,40.024986267089844,-246.2756216504473,0.08451737779660712,20,-5611.579788823191,3.4028234663852886E38,,,,,0,,1,-18.197599411010742,
Raw,1370998,24779000000,,,-1317110508221064521,0.0,12.074314452164835,,,0,22,0.0,16431,460932930011182,24,36.87205123901367,-532.8085548017687,0.12068542104615171,20,-12029.05248544036,3.4028234663852886E38,,,,,0,,1,-18.197599411010742,
Raw,1370998,24779000000,,,-1317110508221064521,0.0,12.074314452164835,,,0,27,0.0,4,923224855,1000000000,26.8409423828125,403.1344871501276,2.99792458E8,20,9156.436032545382,3.4028234663852886E38,,,,,0,,1,-18.197599411010742,
Raw,1371011,24779000000,,,-1317110508221064521,0.0,12.074314452164835,,,0,6,0.0,99,933212043,100,30.47796058654785,-732.5222410200677,0.2505928425572884,20,-13652.443925300895,3.4028234663852886E38,,,,,0,,3,-25.642974853515625,
Raw,1371012,24779000000,,,-1317110508221064521,0.0,12.074314452164835,,,0,6,0.0,51,7936657,16,34.084495544433594,-319.2044952626852,0.165299198537178,17,-3873.04661480431,0.0030376026406884193,,,,,0,,5,-22.759565353393555,
Raw,1371012,24779000000,,,-1317110508221064521,0.0,12.074314452164835,,,0,19,0.0,16431,460918928375322,6,44.22221374511719,-315.2924768205405,0.05251209139780319,17,-5585.80871478075,0.0010028159013018012,,,,,0,,5,-22.759565353393555,
Raw,1371013,24779000000,,,-1317110508221064521,0.0,12.074314452164835,,,0,35,0.0,16431,460918927960693,6,42.69403076171875,-307.08058158102153,0.06224918961390832,17,-4619.30672360535,0.0011957224924117327,,,,,0,,5,-22.759565353393555,
Raw,1371961,25779000000,,,-1317110508221065266,0.0,12.679457978523862,,,0,3,0.0,51,5458287,166,22.797508239746094,-781.0216448169399,4.200981756927899,20,-18602.36427373034,3.4028234663852886E38,,,,,1,,1,-19.455585479736328,
Raw,1371962,25779000000,,,-1317110508221065266,0.0,12.679457978523862,,,0,14,0.0,4,1921326979,1000000000,27.646080017089844,-415.26535365292193,2.99792458E8,20,-9820.283196320936,3.4028234663852886E38,,,,,0,,1,-19.455585479736328,
Raw,1371962,25779000000,,,-1317110508221065266,0.0,12.679457978523862,,,0,21,0.0,16431,460933930132424,16,40.14776611328125,-246.43441181538708,0.08335682688326179,20,-5857.889748096951,3.4028234663852886E38,,,,,0,,1,-19.455585479736328,
Raw,1371963,25779000000,,,-1317110508221065266,0.0,12.679457978523862,,,0,22,0.0,16431,460933930012997,24,36.744384765625,-533.1951180236504,0.12244606782911827,17,-12562.31120492088,0.0022160031367093325,,,,,0,,1,-19.455585479736328,
Raw,1371969,25779000000,,,-1317110508221065266,0.0,12.679457978523862,,,0,27,0.0,4,1923223487,1000000000,24.533567428588867,402.6004491388717,2.99792458E8,20,9557.75067346128,3.4028234663852886E38,,,,,0,,1,-19.455585479736328,
Raw,1371970,25779000000,,,-1317110508221065266,0.0,12.679457978523862,,,0,6,0.0,99,1933214519,90,31.39183235168457,-732.1499924299255,0.22580454545038242,17,-14384.629326868891,0.004041495267301798,,,,,0,,3,-26.11903190612793,
Raw,1371971,25779000000,,,-1317110508221065266,0.0,12.679457978523862,,,0,6,0.0,51,7937724,17,33.52935791015625,-319.2377597402515,0.1761147369046736,20,-4192.165450960468,3.4028234663852886E38,,,,,0,,5,-23.11903190612793,
Raw,1371976,25779000000,,,-1317110508221065266,0.0,12.679457978523862,,,0,19,0.0,16431,460919928376368,6,45.44268798828125,-315.3382154771941,0.045826105280766444,17,-5901.168940042343,8.713599527254701E-4,,,,,0,,5,-23.11903190612793,
Raw,1371977,25779000000,,,-1317110508221065266,0.0,12.679457978523862,,,0,35,0.0,16431,460919927961712,6,41.82005310058594,-306.9366172846692,0.06868727911357994,17,-4926.307185623167,0.0013222976122051477,,,,,0,,5,-23.11903190612793,
Fix,1371971,gps,41.413386,2.193013,84.645224,0.000000,16.000000
Fix,1372966,gps,41.413311,2.192936,84.780158,0.000000,16.000000
Raw,1372980,26779000000,,,-1317110508221066010,0.0,13.08210682761713,,,0,3,0.0,51,5460940,166,22.573665618896484,-781.3548349119069,4.200982289466282,20,-19383.16391363458,3.4028234663852886E38,,,,,1,,1,-18.82168197631836,
Raw,1372981,26779000000,,,-1317110508221066010,0.0,13.08210682761713,,,0,14,0.0,39,2921328423,64,28.305782318115234,-414.7544917121015,0.31898090582728145,20,-10245.031454974627,3.4028234663852886E38,,,,,0,,1,-18.82168197631836,
Raw,1372984,26779000000,,,-1317110508221066010,0.0,13.08210682761713,,,0,21,0.0,16431,460934930133257,12,42.589988708496094,-246.34685398457998,0.06337284976285085,17,-6104.145359430395,0.0011991300852969289,,,,,0,,1,-18.82168197631836,
Raw,1372986,26779000000,,,-1317110508221066010,0.0,13.08210682761713,,,0,22,0.0,16431,460934930014772,34,33.63678741455078,-533.585259903467,0.17434110117770507,20,-13095.380835821048,3.4028234663852886E38,,,,,0,,1,-18.82168197631836,
Raw,1372986,26779000000,,,-1317110508221066010,0.0,13.08210682761713,,,0,27,0.0,4,2923222092,1000000000,26.19720458984375,402.8370154695965,2.99792458E8,20,9961.105120661798,3.4028234663852886E38,,,,,0,,1,-18.82168197631836,
Raw,1372987,26779000000,,,-1317110508221066010,0.0,13.08210682761713,,,0,6,0.0,99,933216881,122,28.76885223388672,-731.6155113467348,0.3045713158372523,20,-15116.741878679255,3.4028234663852886E38,,,,,0,,3,-25.877742767333984,
Raw,1372989,26779000000,,,-1317110508221066010,0.0,13.08210682761713,,,0,6,0.0,51,7938766,19,32.4808235168457,-319.16288058327086,0.1985282623009602,20,-4511.228057851476,3.4028234663852886E38,,,,,0,,5,-22.997549057006836,
Raw,1372989,26779000000,,,-1317110508221066010,0.0,13.08210682761713,,,0,19,0.0,16431,460920928377417,6,45.041717529296875,-315.20645270027694,0.04792020846117523,17,-6216.433995652081,9.125275537371635E-4,,,,,0,,5,-22.997549057006836,
Raw,1372990,26779000000,,,-1317110508221066010,0.0,13.08210682761713,,,0,35,0.0,16431,460920927962746,7,40.58295440673828,-306.8845392911023,0.07898208231191484,17,-5233.231003812416,0.001524699036963284,,,,,0,,5,-22.997549057006836,
Fix,1373961,gps,41.413227,2.192866,85.531130,9.616536,8.000000
Raw,1373979,27779000000,,,-1317110508221066749,0.0,12.272462135640078,,,0,3,0.0,51,5463643,166,23.6663818359375,-781.08162994042,4.200982822004665,20,-20164.896918139388,3.4028234663852886E38,,,,,1,,1,-19.27893829345703,
Raw,1373980,27779000000,,,-1317110508221066749,0.0,12.272462135640078,,,0,14,0.0,39,3921329755,43,31.624433517456055,-415.20158537676775,0.21776296623716473,20,-10660.47294888558,3.4028234663852886E38,,,,,0,,1,-19.27893829345703,
Raw,1373981,27779000000,,,-1317110508221066749,0.0,12.272462135640078,,,0,21,0.0,16431,460935930134071,15,40.52677536010742,-246.28398889352366,0.07987587309985372,20,-6350.046381194563,3.4028234663852886E38,,,,,0,,1,-19.27893829345703,
