     3.03           OBSERVATION DATA    M (MIXED)           RINEX VERSION / TYPE
Rokubun core        rokubun             2021-10-07 21:31:11 PGM / RUN BY / DATE
UNKN                                                        MARKER NAME
unknown             unknown                                 OBSERVER / AGENCY
unknown             samsung  SM-G950F   unknown             REC # / TYPE / VERS
unknown             unknown                                 ANT # / TYPE
        0.0000        0.0000        0.0000                  APPROX POSITION XYZ
        0.0000        0.0000        0.0000                  ANTENNA: DELTA H/E/N
  2021    10    01    08    02   02.0000565     GPS         TIME OF FIRST OBS
  2021    10    01    08    06   14.0002472     GPS         TIME OF LAST OBS
G    4 C1C L1C D1C S1C                                      SYS / # / OBS TYPES
E    4 C1B L1B D1B S1B                                      SYS / # / OBS TYPES
C    4 C2I L2I D2I S2I                                      SYS / # / OBS TYPES
                                                            END OF HEADER
> 2021 10 01 08 02  2.0000565  0  6
G21  20965607.81206    -15238.11106      1297.84806        38.01406
G22                                      2777.24915        34.52615
G27                                     -2123.31215        34.64115
C06                                      1716.37614        27.44914
C19                                      1645.77017        43.27317
C35                                      1599.51816        41.01316
> 2021 10 01 08 02  3.0000572  0  8
G03                                      4142.62115        35.01615
G14                                      2177.17615        34.53115
G21  20965374.87316                      1297.30216        38.32616
G22                                      2782.20915        35.19815
G27                                     -2119.23916        39.75716
C06                                      1689.20215        35.62115
C19                    -12649.40607      1647.26607        46.45407
C35                                      1601.59416        39.14416
> 2021 10 01 08 02  4.0000579  0  8
G03                                      4148.54515        33.93015
G14                                      2178.82116        36.81216
G21  20965116.45216                      1298.44716        37.11416
G22                                      2787.16415        35.66515
G27                                     -2119.21816        38.74116
C06                                      1675.31315        33.57415
C19  21492269.11207    -14295.80807      1646.32207        44.03307
C35                                      1600.93516        38.06316
> 2021 10 01 08 02  5.0000587  0  8
G03                                      4143.84415        31.12415
G14                                      2180.67516        36.70216
G21  20964874.81906    -19131.11106      1294.56106        39.18706
G22                                      2787.98416        37.38516
G27                                     -2120.93816        41.06016
C06                                      1680.06215        33.37815
C19  21491954.33007    -15941.29807      1644.86207        44.43307
C35                                      1599.74416        39.76216
> 2021 10 01 08 02  6.0000594  0  8
G03                                      4136.17514        28.55914
G14                                      2182.79916        40.56816
G21  20964634.08616                      1294.15016        39.53416
G22                    -43623.20206      2792.86506        39.09006
G27                                     -2120.80616        40.08416
C06                                      1683.54415        31.39715
C19  21491635.05107    -17585.82207      1644.30707        45.10007
C35                                      1598.39316        40.73516
> 2021 10 01 08 02  7.0000603  0  8
G03                                      4103.04714        26.95614
G14                                      2169.18115        35.96115
G21  20964378.96207    -21722.29807      1296.43907        42.78907
G22                    -46417.69406      2795.86106        37.28306
G27                                     -2123.40816        38.34016
C06                                      1676.67814        28.64114
C19  21491322.36707    -19229.98507      1644.07007        45.26607
C35                    -14461.63706      1599.80006        41.38206
> 2021 10 01 08 02  8.0000610  0  8
G03                                      4096.82314        24.74714
G14                                      2155.47415        31.41015
G21  20964129.83506    -23017.65106      1294.73106        41.17006
G22  21001660.55306    -49213.90706      2796.10906        38.18206
G27                                     -2137.44415        33.81915
C06                                      1672.38715        32.41915
C19  21491004.58707    -20873.33007      1642.58607        45.75307
C35                    -16060.93306      1599.42006        40.92406
> 2021 10 01 08 02  9.0000615  0  8
G03                                      4098.15414        24.11314
G14                                      2142.28714        27.80614
G21  20963880.40816                      1294.87216        41.22316
G22  21001140.11306    -52011.69906      2798.60406        38.13106
G27                                     -2144.27315        31.41915
C06                    -13508.95105      1669.53905        33.48105
C19  21490688.00607    -22516.35907      1643.10707        46.13507
C35                    -17660.05007      1598.69207        42.96307
> 2021 10 01 08 02 10.0000622  0  8
G03                                      4098.21113        23.75313
G14                                      2177.41914        26.60414
G21  20963642.37207    -25607.47907      1293.61507        43.33507
G22  21000602.88506    -54810.60606      2799.54806        37.56206
G27                                     -2135.39315        30.00215
C06                    -15176.41405      1666.49605        34.37805
C19  21490372.62507    -24159.01807      1642.10107        45.68507
C35  21614647.39107    -19258.93507      1598.37307        42.77707
> 2021 10 01 08 02 11.0000629  0  8
G03                                      4098.08713        22.95813
G14                                      2200.80614        29.96914
G21  20963391.14607    -26901.34607      1294.06007        42.08907
G22  21000067.45606    -57610.36606      2799.86306        37.61706
G27                                     -2136.38314        27.23014
C06                    -16841.89605      1665.19905        35.47705
C19  21490057.84307    -25801.85407      1643.01807        45.00607
C35  21614342.20207    -20857.20607      1597.56407        42.42807
> 2021 10 01 08 02 12.0000639  0  8
G03                                      4100.02513        23.94913
G14                                      2175.68414        27.53914
G21  20963144.41717                      1292.51617        42.18117
G22  20999532.32616                      2796.73316        38.08516
G27                                     -2128.21414        26.31414
C06                    -18505.55905      1663.32205        35.90505
C19  21489741.56107    -27444.47007      1642.91807        45.50707
C35  21614034.01607    -22455.45407      1598.50907        43.58307
> 2021 10 01 08 02 13.0000646  0  8
G03                                      4102.21913        22.08213
G14                                      2178.14914        27.54614
G21  20962906.98116                      1294.18716        40.02516
G22  20999007.68916                      2799.92816        36.87216
G27                                     -2118.48614        26.84114
C06                    -20167.97005      1662.18205        34.08405
C19  21489426.18007    -29086.77207      1641.81107        44.22207
C35  21613728.82707    -24053.94207      1599.04907        42.69407
> 2021 10 01 08 02 14.0000653  0  8
G03                                      4104.29713        22.79813
G14                                      2182.23414        27.64614
G21  20962660.25216                      1295.02216        40.14816
G22  20998463.56606    -66015.39106      2801.95906        36.74406
G27                                     -2115.68014        24.53414
C06                                      1662.35515        33.52915
C19  21489112.59707    -30728.93507      1642.04907        45.44307
C35  21613423.33806    -25652.57406      1598.30006        41.82006
> 2021 10 01 08 02 15.0000660  0  8
G03                                      4106.04713        22.57413
G14                                      2179.55014        28.30614
G21  20962410.52507    -32077.50007      1294.56107        42.59007
G22  20997931.43515                      2804.00915        33.63715
G27                                     -2116.92314        26.19714
C06                                      1661.96515        32.48115
C19  21488798.11507    -32370.60307      1641.36307        45.04207
C35  21613113.35306    -27250.80706      1598.02806        40.58306
> 2021 10 01 08 02 16.0000670  0  8
G03                                      4104.61213        23.66613
G14                                      2181.89915        31.62415
G21  20962166.49416                      1294.23116        40.52716
G22  20997409.19615                      2799.14415        34.41515
G27                                     -2118.06214        25.77914
C06                                      1662.58315        32.54515
C19  21488481.23407    -34012.37007      1641.57407        44.36907
C35  21612807.26516                      1597.55116        40.39116
> 2021 10 01 08 02 17.0000677  0  8
G03                                      4105.19713        22.86113
G14                                      2184.72115        30.93015
G21  20961917.06717                      1294.23217        42.34717
G22  20996876.16515                      2799.53615        34.64815
G27                                     -2120.07314        26.32214
C06                                      1660.42615        33.19415
C19  21488165.85207    -35654.02307      1641.85207        45.55107
C35  21612498.47907    -30447.14007      1597.42707        42.06807
> 2021 10 01 08 02 18.0000684  0  8
G03                                      4107.82813        23.16513
G14                                      2167.30515        31.98315
G21  20961677.23316                      1293.79916        39.19716
G22  20996339.53715                      2801.08015        35.21015
G27                                     -2115.19014        29.28814
C06                                      1661.99114        29.93514
C19  21487851.07007    -37295.59007      1641.74507        44.48307
C35  21612191.49116                      1598.06516        41.14816
> 2021 10 01 08 02 19.0000689  0  8
G03                                      4108.54014        26.01114
G14                                      2184.25916        36.70616
G21  20961425.10717                      1296.80517        42.00017
G22  20995796.61215                      2804.06115        35.38815
G27                                     -2114.58316        37.55216
C06                                      1663.47815        33.41215
C19  21487534.19007    -38937.14607      1641.82007        45.74407
C35  21611887.50207    -33645.02107      1598.90307        42.75007
> 2021 10 01 08 02 20.0000696  0  8
G03                                      4110.61514        26.37914
G14                                      2188.80016        39.20116
G21  20961177.17907    -38549.56107      1295.69307        43.42207
G22  20995276.17305    -82822.46005      2802.27205        34.66005
G27                                     -2112.66417        42.09417
C06                                      1663.96115        33.66315
C19  21487219.10807    -40578.79207      1641.75207        45.91407
C35  21611579.01507    -35244.14407      1599.13907        44.21507
> 2021 10 01 08 02 21.0000706  0  8
G03                                      4140.45314        25.63514
G14                                      2179.46916        39.30216
G21  20960934.34717                      1294.89517        42.70617
G22  20994734.14815                      2799.84515        34.67415
G27                                     -2116.68616        38.33016
C06                    -33459.05105      1662.60605        34.31605
C19  21486907.02407    -42221.00307      1642.29607        45.99007
C35  21611272.02807    -36843.84307      1600.07907        43.03507
> 2021 10 01 08 02 22.0000713  0  8
G03                                      4118.42414        25.74314
G14                                      2177.61816        39.67316
G21  20960686.41916                      1293.97416        40.42916
G22  20994208.31205    -88427.43805      2801.74605        33.92605
G27                                     -2115.09616        38.52316
C06  39605605.91005    -35123.18805      1664.12205        35.54905
C19  21486588.64407    -43863.35107      1642.04807        45.20607
C35  21610964.44117                      1601.48517        42.12117
> 2021 10 01 08 02 23.0000720  0 22
G01                                      2693.12615        35.74715
G03                                      4109.18614        24.54014
G08                                      -712.43717        44.85317
G10                                     -2178.51616        40.05916
G14                                      2184.79016        40.70616
G17                                      4493.33412        12.00012
G21  20960438.49007    -42439.00207      1296.93707        42.28507
G22  20993671.98315                      2799.26915        33.37315
G27                                     -2118.36916        37.87816
G32                                       865.93516        41.41316
E05                                       903.41415        32.60515
E15                                      2118.04716        37.70016
C05                                      1121.95012        17.89712
C06  39605284.23205    -36787.31205      1664.42705        35.18605
C09                                      2193.16915        34.12715
C12                                      4130.72812        12.00012
C16                                      1457.56015        34.43615
C19  21486274.46207    -45504.82207      1641.44007        45.52707
C22                                      4281.00414        24.96314
C24                                      -421.46312        12.00012
C29                                     -1013.46717        42.89917
C35  21610656.55407    -40042.44707      1599.60807        43.49807
> 2021 10 01 08 02 24.0000727  0 20
G01                                      2692.68015        35.03615
G03                                      4112.85214        24.09614
G08                                      -712.35317        45.64017
G10                                     -2178.96316        39.32316
G14                                      2180.15516        39.29116
G17                                      4491.51012        12.00012
G21  20960192.06117                      1296.32417        42.40317
G22  20993143.14915                      2799.21415        34.51115
G27                                     -2116.01516        36.61616
G32                                       868.76916        40.94216
C05                                      1119.99912        12.00012
C06  39604969.15005    -38451.75205      1665.32605        35.51905
C09                                      2193.16916        36.58316
C12                                      4132.67912        12.00012
C16                                      1457.56015        33.79415
C19  21485958.18107    -47146.07907      1641.65807        46.34807
C22                                      4282.39914        28.69814
C24                                      -421.46312        12.00012
C29                                     -1016.12916        41.28416
C35  21610348.96707    -41642.14107      1600.06407        43.15307
> 2021 10 01 08 02 25.0000737  0 20
G01                                      2692.46015        34.96915
G03                                      4111.55313        23.53813
G08                       718.36507      -711.20807        46.11407
G10                      2217.57606     -2178.24106        39.52006
G14                    -75658.26906      2181.58006        40.88906
G17                                      4493.33412        12.00012
G21  20959946.83116                      1293.34616        41.92016
G22  20992602.62415                      2801.54515        34.03315
G27                                     -2110.04716        36.86016
G32                                       868.32816        40.02416
C05                                      1118.04812        12.00012
C06  39604645.37505    -40116.65005      1665.81605        35.31605
C09                                      2193.16916        38.10616
C12                                      4132.67912        12.00012
C16                                      1457.55416        36.75316
C19  21485641.90007    -48787.50407      1641.63707        46.46607
C22                                      4283.82915        31.30915
C24                                      -421.46312        12.00012
C29                                     -1011.73117        43.83017
C35  21610040.48007    -43241.46007      1599.24907        43.17107
> 2021 10 01 08 02 26.0000744  0 20
G01                                      2696.40915        35.58015
G03                                      4111.03614        24.04814
G08                      1429.51807      -711.20507        46.58207
G10                      4395.32906     -2177.15106        40.12306
G14                    -77839.55407      2181.88307        43.10807
G17                                      4496.58212        12.00012
G21  20959700.70107    -46329.47807      1296.95907        44.10707
G22  20992073.19005    -99632.88505      2801.37805        35.02305
G27                                     -2108.64616        38.86816
G32                                       866.71016        41.16616
C05                                      1119.99912        12.00012
C06  39604328.79406    -41781.98506      1665.72006        36.30306
C09                                      2193.16916        38.66616
C12                                      4136.58212        12.00012
C16                     -1467.33505      1458.83805        35.87005
C19  21485327.71707    -50428.95807      1641.43807        46.01107
C22                                      4284.65015        31.17015
C24                                      -417.56112        12.00012
C29                      1013.33507     -1011.34507        43.63607
C35  21609734.69207    -44840.77707      1599.48807        43.58907
> 2021 10 01 08 02 27.0000751  0 20
G01                                      2698.74515        35.55115
G03                                      4109.59214        24.35414
G08                      2141.23607      -712.55207        45.91707
G10                      6572.99206     -2178.08006        40.18806
G14                    -80021.50907      2181.79707        42.56007
G17                                      4498.53212        12.00012
G21  20959450.67407    -47626.77807      1296.63407        44.79107
G22  20991543.75705   -102433.88005      2800.57405        34.22405
G27                                     -2114.20716        41.38116
G32                      -868.81406       865.27106        41.20706
C05                                      1119.99913        22.24813
C06  39604010.41406    -43447.43606      1665.25406        36.54406
C09                                      2193.16916        38.73416
C12                                      4136.58213        18.11313
C16                     -2926.00805      1458.37305        35.63105
C19  21485012.33507    -52070.01707      1640.49707        45.44207
C22                                      4284.20115        30.32715
C24                                      -417.56112        12.00012
C29                      2025.33507     -1012.61507        43.33207
C35  21609427.40507    -46440.39407      1599.22807        44.59807
> 2021 10 01 08 02 28.0000758  0 20
G01                                      2695.59315        33.90215
G03                                      4109.38914        24.16214
G08                      2853.70707      -712.58007        46.11807
G10                      8750.78506     -2177.90306        39.41506
G14                                      2179.02016        40.88116
G17                                      4498.53212        12.00012
G21  20959202.44607    -48923.72707      1296.75307        45.53507
G22  20990997.83505   -105234.20005      2799.40205        34.13905
G27                                     -2113.40216        41.06616
G32                     -1733.14507       864.57607        42.14207
C05                                      1119.99912        12.00012
C06  39603687.53806    -45112.42406      1664.67506        36.61806
C09                                      2193.16916        37.76516
C12                                      4136.58212        12.00012
C16                     -4384.27506      1458.63006        36.49706
C19  21484697.55307    -53710.22207      1640.06007        45.91507
C22                                      4279.77815        30.55815
C24                                      -419.51213        21.93213
C29                      3037.98207     -1012.74107        43.19007
C35  21609122.81607    -48039.36807      1598.52407        45.45207
> 2021 10 01 08 02 29.0000765  0 20
G01                                      2693.17715        35.21115
G03                                      4109.41814        25.25714
G08                      3566.70707      -713.07707        45.71407
G10                     10928.60006     -2177.71306        39.69206
G14                                      2178.15217        42.47517
G17                                      4498.53312        12.00012
G21  20958954.81807    -50220.57007      1297.11307        45.37307
G22  20990473.49815                      2798.32515        34.40415
G27                                     -2118.63716        39.73316
G32                     -2596.85407       863.60607        42.64907
C05                                      1119.99912        12.00012
C06  39603368.55806    -46777.24806      1664.59706        36.94506
C09                                      2195.12015        35.47515
C12                                      4136.58212        12.00012
C16                     -5842.32305      1458.12705        35.88405
C19  21484381.87207    -55349.85207      1639.26907        45.09407
C22                                      4279.99614        29.82214
C24                                      -419.51212        13.91812
C29                      4050.98807     -1013.28707        43.56007
C35  21608814.62907    -49638.01507      1598.34807        45.28807
> 2021 10 01 08 02 30.0000775  0 20
G01                                      2691.67315        34.79615
G03                                      4110.08813        22.38613
G08                      4280.16407      -713.62807        45.58407
G10                                     -2166.65116        37.35016
G14                                      2178.07916        39.77616
G17                                      4499.50812        12.00012
G21  20958708.68816                      1293.69316        41.65916
G22  20989941.96615                      2794.66915        34.39115
G27                                     -2115.60516        40.81816
G32                                       865.75317        43.92417
C05                                      1118.04812        12.00012
C06  39603049.57906    -48443.24006      1667.61106        36.33806
C09                                      2193.16915        34.40315
C12                                      4138.53312        14.05412
C16                                      1461.48815        34.63015
C19  21484068.28907    -56989.17007      1639.44307        45.22907
C22                                      4282.22615        32.90815
C24                                      -417.56112        12.00012
C29                      5064.14807     -1012.31907        43.56107
C35  21608506.14207    -51236.70807      1598.65207        43.73407
> 2021 10 01 08 02 31.0000782  0 20
G01                                      2693.85716        38.50816
G03                                      4108.96414        24.17114
G08                      4993.81707      -713.96107        44.94007
G10                                     -2165.24816        37.26016
G14                    -88745.10007      2180.64007        44.69407
G17                                      4500.48312        12.00012
G21  20958459.86007    -52816.13807      1298.87407        42.70907
G22  20989401.14006   -113631.09806      2794.99906        36.92106
G27                                     -2113.68816        38.47116
G32                     -4329.35307       871.85607        43.59607
C05                                      1119.99912        16.97412
C06  39602727.90205    -50115.08805      1676.66405        35.39405
C09                                      2195.12015        35.68115
C12                                      4136.58213        19.65213
C16                                      1466.21115        34.49415
C19  21483755.60507    -58629.15907      1640.20907        45.56107
C22                                      4279.45115        32.65015
C24                                      -419.51212        17.95212
C29                      6074.61307     -1008.84407        44.11807
C35  21608198.55507    -52836.09807      1599.56107        43.93607
> 2021 10 01 08 02 32.0000789  0 20
G01                                      2692.96416        38.36516
G03                                      4108.12813        21.85013
G08  20950489.27807      5708.63607      -715.17507        45.65407
G10                     17435.33306     -2158.14806        39.32306
G14  23594934.56707    -90923.26007      2176.97307        44.73507
G17                                      4499.50912        12.00012
G21  20958216.42907    -54115.87707      1300.36507        44.70207
G22  20988872.00606   -116424.12606      2791.12006        37.12006
G27  23041126.46016                     -2115.30716        40.57816
G32                     -5204.24507       877.51607        43.24307
C05                                      1123.90115        32.49615
C06  39602404.12606    -51794.94506      1683.95306        36.67006
C09                                      2200.97415        34.17215
C12                                      4136.58212        12.00012
C16                    -10240.03105      1477.47205        35.08705
C19  21483436.92607    -60269.74307      1640.82407        45.87307
C22                                      4266.93215        32.90015
C24                                      -421.46312        12.00012
C29                      7082.81107     -1005.88307        42.65007
C35  21607892.76707    -54435.83807      1599.84507        43.86107
> 2021 10 01 08 02 33.0000794  0 20
G01                                      2695.00916        38.30816
G03                                      4111.84413        21.32813
G08  20950626.58307      6424.52607      -716.08807        43.82007
G10                                     -2147.94216        37.90216
G14  23594525.05016                      2172.58116        40.55816
G17                                      4501.45812        12.00012
G21  20957970.29907    -55416.53707      1301.81107        44.85307
G22  20988347.96906   -119214.38606      2789.09406        36.87506
G27  23041521.88607     90393.22407     -2113.04607        44.11807
G32                     -6082.61207       880.88307        46.47507
C05                                      1127.80414        25.37614
C06  39602084.54706    -53479.39406      1687.42206        37.03606
C09                                      2210.73015        31.45815
C12                                      4134.63112        12.00012
C16                                      1483.04415        35.06515
C19  21483123.34307    -61910.24707      1640.90007        43.87207
C22                                      4261.05115        30.40915
C24                                      -425.36512        15.32612
C29                                     -1008.64017        43.93317
C35  21607584.58007    -56035.74807      1600.43107        45.50007
> 2021 10 01 08 02 34.0000801  0 20
G01                     -2720.60806      2692.59906        38.91806
G03                                      4119.25913        21.01813
G08  20950759.69107      7141.49407      -717.00407        44.50907
G10                                     -2132.78815        34.62415
G14  23594107.14006    -95275.68406      2173.40106        37.24306
G17                                      4502.43412        12.00012
G21  20957719.67307    -56719.10707      1302.97907        45.08207
G22  20987811.04106   -122000.65206      2784.13306        36.03806
G27  23041929.60407     92506.88407     -2113.94107        43.32107
G32                     -6967.44807       888.91907        47.19707
C05                                      1129.75515        34.12715
C06  39601756.57406    -55172.50006      1697.75906        36.88606
C09                                      2212.68115        34.03415
C12                                      4136.58213        22.40813
C16                                      1489.46715        35.48315
C19  21482807.66207    -63551.53307      1642.10707        44.09707
C22                                      4257.79614        29.49114
C24                                      -425.36512        12.00012
C29  23145298.94307      9094.71307     -1001.97707        45.88607
C35  21607276.39407    -57636.64907      1600.85507        45.49307
> 2021 10 01 08 02 35.0000811  0 20
G01                                      2684.54216        39.91016
G03                                      4136.14314        29.29214
G08  20950897.29607      7858.04407      -716.88507        45.99607
G10                                     -2130.46615        35.94815
G14  23593695.82415                      2169.59315        35.05715
G17                                      4500.72112        12.97112
G21  20957475.64207    -58022.57807      1303.65507        45.19207
G22  20987292.99916                      2776.66616        36.46616
G27  23042360.70616                     -2117.49616        38.12016
G32                     -7861.02808       896.80308        48.37908
C05                                      1135.60913        21.34713
C06  39601433.09806    -56875.39606      1706.88706        38.02206
C09                                      2222.43714        26.89814
C12                                      4134.63113        18.92913
C16                    -14700.25806      1500.67306        39.41006
C19  21482491.98007    -65194.63307      1643.50807        45.05907
C22                                      4250.90615        32.52215
C24                                      -431.21912        15.61712
C29  23145489.31106     10093.85406      -996.12706        40.69306
C35  21606971.80507    -59237.79907      1601.10007        45.46507
> 2021 10 01 08 02 36.0000818  0 20
G01                                      2686.47116        41.54316
G03                                      4154.54415        34.35415
G08  20951032.20206      8574.74906      -717.33406        39.36506
G10                                     -2126.08215        35.09315
G14  23593292.60315                      2163.39215        33.04315
G17                                      4497.94512        15.22912
G21  20957223.21607    -59327.33707      1304.59807        43.95307
G22  20986760.56816                      2776.17916        40.37416
G27  23042763.92616                     -2114.99816        36.67216
G32                     -8761.38407       902.12207        46.56107
C05                                      1141.46215        33.29315
C06                                      1715.83915        33.93615
C09                                      2232.19314        25.22514
C12                                      4130.72813        20.30413
C16                                      1503.94315        35.44715
C19  21482181.09507    -66838.74907      1643.70307        42.35007
C22                                      4243.29515        30.19415
C24                                      -437.07312        12.00012
C29  23145677.88106     11089.81406      -995.24306        40.56606
C35  21606660.92007    -60839.45307      1601.07907        43.10107
> 2021 10 01 08 02 37.0000825  0 20
G01                    -10781.06607      2687.56607        45.18607
G03                                      4146.15615        35.70415
G08  20951169.50716                      -719.91616        38.43716
G10                                     -2121.53015        33.27715
G14  23592883.38715                      2166.15315        31.33915
G17                                      4499.49812        14.36912
G21  20956975.28807    -60632.78507      1305.91307        43.62207
G22  20986223.64007   -130335.12807      2774.72107        42.32407
G27  23043155.75515                     -2116.48615        35.72215
G32                                       902.19717        42.71617
C05                                      1145.36514        28.19214
C06  39600783.74815                      1721.98315        31.12415
C09                                      2236.09615        32.16815
C12                                      4126.82512        12.00012
C16                                      1509.82715        32.23615
C19  21481865.71406    -68483.39106      1645.43406        39.68806
C22                                      4250.92915        33.53215
C24                                      -442.92612        12.00012
C29  23145878.14206     12084.33206      -993.66206        38.56206
C35  21606357.83007    -62441.39907      1602.12907        43.40207
> 2021 10 01 08 02 38.0000832  0 20
G01                    -13468.31707      2687.30007        44.50507
G03                                      4140.48516        36.67216
G08  20951308.01106     10010.05506      -718.85506        39.81306
G10                                     -2119.40815        35.63615
G14  23592468.47414                      2172.21414        28.93414
G17                                      4494.48512        13.50912
G21  20956723.16207    -61938.71807      1305.92107        43.64907
G22  20985707.99706   -133109.08606      2773.23306        41.25606
G27  23043563.17315                     -2118.66215        33.30715
G32                                       902.66216        41.47316
C05                                      1147.31612        12.00012
C06  39600435.98915                      1719.59915        34.90115
C09                                      2239.99816        36.74916
C12                                      4126.82512        12.00012
C16                                      1508.22815        34.69515
C19  21481547.93406    -70127.69206      1644.36606        37.76806
C22                                      4250.18316        38.02116
C24                                      -442.92613        22.04013
C29  23146068.21016                      -995.95916        38.31116
C35  21606046.34507    -64043.31907      1601.89607        43.64507
> 2021 10 01 08 02 39.0000842  0 20
G01                    -16155.95007      2688.13207        42.23307
G03                   -200634.15406      4144.43206        38.88606
G08  20951439.32006     10728.74906      -718.40306        40.00706
G10                                     -2120.63116        40.83716
G14  23592108.42314                      2175.35114        26.20014
G17                                      4498.61712        13.62412
G21  20956478.53207    -63245.25507      1307.17907        43.74807
G22  20985170.46906   -135882.28906      2773.73306        40.64806
G27  23043997.27315                     -2124.20115        35.11715
G32                                       905.30316        41.91316
C05                                      1149.26712        12.00012
C06  39600113.71215                      1717.12315        34.45515
C09                                      2241.94916        36.07816
C12                                      4126.82512        12.00012
C16                    -20757.12906      1512.11306        39.16106
C19  21481232.55216                      1643.73816        36.13116
C22                                      4249.13517        42.20017
C24                                      -444.87812        12.00012
C29  23146269.97116                      -997.37716        37.53216
C35  21605740.85707    -65645.40307      1602.84207        43.67807
> 2021 10 01 08 02 40.0000849  0 20
G01                    -18844.41007      2688.79407        42.41407
G03                   -204777.51906      4143.14006        41.75906
G08  20951582.32106     11447.97806      -719.61106        41.04506
G10                     34468.91707     -2119.04607        45.42107
G14  23591700.10613                      2164.87613        23.96813
G17                                      4497.55712        12.76412
G21  20956230.90307    -64552.65707      1307.54807        43.99707
G22  20984643.43407   -138655.35807      2772.73507        43.35507
G27  23044363.01915                     -2121.10515        33.75515
G32                                       902.20216        37.85416
C05                                      1147.31612        12.00012
C06  39599784.24005    -65455.54805      1719.71105        33.36805
C09                                      2241.94916        39.83916
C12                                      4128.77713        19.18313
C16  40143680.00906    -22270.14306      1513.24706        41.47106
C19  21480915.07215                      1641.40915        33.92215
C22                     -4324.78806      4248.10906        40.43106
C24                                      -442.92612        17.17512
C29  23146452.54416                      -992.81616        36.14716
C35  21605432.97007    -67247.97307      1602.70107        44.00707
> 2021 10 01 08 02 41.0000856  0 20
G01                    -21533.66506      2689.82406        41.09506
G03                   -208920.88206      4142.90306        41.38106
G08  20951720.82506     12167.78206      -720.23606        41.20606
G10                     36587.76507     -2118.07807        47.89807
G14                                      2166.01714        25.29714
G17                                      4498.53212        12.00012
G21  20955979.67707    -65860.50407      1308.17907        43.82607
G22  20984117.59807   -141428.39807      2772.95207        43.66007
G27  23044773.13615                     -2114.57015        33.84515
G32                                       907.02016        38.07716
C05                                      1147.31613        20.81413
C06  39599460.76415                      1719.87515        32.75715
C09                                      2241.94916        38.36816
C12                                      4128.77712        12.00012
C16  40143383.21407    -23783.27907      1513.68607        43.03807
C19  21480602.68805    -75058.81605      1643.17505        35.16205
C22                     -8572.89906      4248.44306        38.72006
C24                                      -442.92613        21.99713
C29  23146643.21205     16062.48305      -995.58405        35.04505
C35  21605125.08307    -68850.63407      1602.74307        43.63007
> 2021 10 01 08 02 42.0000863  0 20
G01                    -24223.55406      2689.70006        41.73606
G03                   -213063.94306      4142.04006        41.73106
G08  20951858.43006     12888.29506      -720.87706        41.57706
G10                     38706.38307     -2118.34407        43.11507
G14  23590857.68914                      2170.90414        27.46314
G17                                      4499.50812        12.00012
G21  20955731.44907    -67168.82807      1308.11307        43.01607
G22  20983594.16007   -144201.21907      2772.63507        43.17907
G27  23045192.84515                     -2116.21915        33.74915
G32                                       903.40016        36.79116
C05                                      1149.26712        12.00012
C06  39599129.79315                      1721.18915        30.04915
C09                                      2243.90016        38.14816
C12                                      4130.72812        12.00012
C16  40143094.51406    -25296.59806      1513.62206        39.01806
C19  21480287.90605    -76701.63105      1642.44605        35.66405
C22                                      4247.00516        36.60316
C24                                      -442.92612        12.00012
C29  23146836.57815                      -997.73815        34.57815
C35  21604817.19607    -70453.54207      1603.02807        43.52807
> 2021 10 01 08 02 43.0000870  0 20
G01                    -26908.71107      2681.68507        43.70007
G03                   -217205.94107      4141.28907        42.15507
G08  20951990.33906     13606.06006      -716.09506        41.73206
G10                                     -2117.10716        38.43216
G14  23590433.48315                      2177.40315        30.63015
G17                                      4501.45912        12.00012
G21  20955486.51907    -68475.43807      1305.79007        43.72907
G22  20983067.12507   -146972.57307      2770.22107        45.52707
G27  23045597.86515                     -2127.30515        35.40115
G32                                       904.46716        37.82216
C05                                      1149.26712        12.00012
C06  39598790.72814                      1722.46314        29.92614
C09                                      2243.90016        37.22016
C12                                      4130.72812        16.54212
C16  40142806.41306    -26811.24806      1516.96406        37.68906
C19  21479972.82415                      1643.36715        35.43415
C22                                      4247.23316        37.21916
C24                                      -442.92612        12.00012
C29  23147032.64315                      -996.04315        32.33615
C35  21604509.60907    -72055.16607      1601.41807        44.57807
> 2021 10 01 08 02 44.0000880  0 20
G01  20723436.96317                      2676.96017        43.20817
G03                                      4140.08716        38.32716
G08  20952127.34407     14320.48207      -712.97107        43.09607
G10  24596741.13007     42939.53707     -2117.17407        43.53407
G14  23590003.28114                      2167.83914        29.03214
G17                                      4502.43412        12.00012
G21  20955237.09107    -69779.64607      1303.18507        43.60407
G22  20982537.69107   -149743.02307      2770.86607        43.83707
G27  23045971.10615                     -2118.27515        33.50515
G32  22626823.47607    -15999.56307       910.12807        42.36507
C05                                      1151.21812        12.00012
C06  39598460.35615                      1724.31315        33.49215
C09                                      2243.90016        37.21516
C12                                      4128.77713        18.46813
C16  40142514.41606    -28326.68306      1514.51406        39.93306
C19  21479648.44906    -79992.92306      1648.01906        36.72306
C22                                      4253.38116        38.58816
C24                                      -444.87812        12.00012
C29  23147210.12005     19033.46905      -982.27305        33.25305
C35  21604200.22307    -73655.45407      1599.73307        43.90407
> 2021 10 01 08 02 45.0000887  0 20
G01  20722926.71617                      2673.19217        42.29817
G03                   -225488.62807      4140.82307        42.97407
G08  20952259.25307     15031.97407      -710.46907        42.15707
G10  24597169.53416                     -2124.14216        39.57916
G14  23589585.96914                      2157.56114        26.91714
G17                                      4499.50812        12.00012
G21  20954989.76207    -71081.64807      1301.27007        43.92907
G22  20982012.45507   -152512.75807      2769.00907        45.46707
G27  23046409.70315                     -2128.89115        32.10515
G32  22626669.68316                       900.46716        38.76216
C05                                      1166.82813        23.63113
C06  39598131.18415                      1720.70715        31.91015
C09                                      2251.70516        36.32116
C12                                      4113.16712        12.00012
C16  40142222.41806    -29841.35006      1515.58306        38.72606
C19  21479334.56606    -81641.22106      1649.10606        36.38206
C22                    -25576.09706      4255.32006        40.68006
C24                                      -460.48712        12.00012
C29  23147395.69105     20013.25705      -977.66605        35.07905
C35  21603896.23407    -75254.26907      1598.33507        44.11807
> 2021 10 01 08 02 46.0000894  0 20
G01  20722411.07306    -34932.78306      2669.22406        41.03806
G03                   -229628.73907      4138.89607        43.52007
G08  20952394.45906     15741.87806      -709.15306        41.38606
G10  24597571.55615                     -2130.42315        35.27715
G14  23589177.65214                      2138.65914        26.84514
G17                                      4482.92212        12.00012
G21  20954743.33307    -72381.50507      1298.91407        43.57207
G22  20981481.82207   -155280.67507      2767.07007        46.07007
G27  23046835.70815                     -2132.34015        30.52115
G32  22626476.61616                       906.96916        37.27516
C05                                      1172.68212        12.00012
C06  39597794.81715                      1723.97615        31.02015
C09                                      2253.65615        35.63915
C12                                      4105.36212        12.00012
C16  40141935.21715                      1515.28515        35.43215
C19  21479019.48405    -83290.20905      1649.05105        34.86105
C22  24306741.69306    -29831.83106      4256.25006        39.46406
C24                                      -468.29212        12.00012
C29  23147585.16005     20989.03005      -973.51705        34.24105
C35  21603586.24807    -76851.46507      1596.43307        43.89307
> 2021 10 01 08 02 47.0000899  0 20
G01  20721911.91907    -37599.02907      2663.53507        42.74407
G03                   -233767.57107      4138.03607        42.04307
G08  20952531.16506     16450.65606      -708.79506        41.14306
G10  24597952.89216                     -2116.38916        37.00216
G14  23588760.94115                      2136.79915        30.23315
G17                                      4476.09312        12.00012
G21  20954498.10307    -73678.54607      1295.30907        42.91807
G22  20980952.98807   -158046.64907      2764.67507        46.50207
G27  23047236.83014                     -2121.99714        27.70314
G32  22626305.13516                       918.84516        37.43216
C05                                      1178.53512        12.00012
C06  39597466.24515                      1725.85115        30.28315
C09                                      2257.55916        36.20716
C12                                      4099.50812        12.00012
C16  40141636.32306    -32872.13106      1516.51506        37.15506
C19  21478701.10505    -84939.45905      1648.89005        35.98405
C22  24305924.45916                      4253.94116        37.50916
C24                                      -474.14613        18.51613
C29  23147765.93515                      -973.36615        32.51015
C35  21603280.76007    -78446.45307      1593.61507        43.81007
> 2021 10 01 08 02 48.0000906  0 20
G01  20721398.07507    -40260.18407      2657.97807        44.39807
G03                                      4136.71916        41.58116
G08  20952662.47406     17158.25706      -707.16406        40.97206
G10  24598384.59315                     -2127.37215        32.07315
G14  23588359.51915                      2122.54615        35.73115
G17                                      4470.24012        12.00012
G21  20954244.17907    -74972.19207      1291.47807        42.48907
G22  20980431.94907   -160810.58607      2762.43407        46.62207
G27                                     -2116.50914        25.56414
G32  22626128.85715                       913.95415        34.93615
C05                                      1178.53512        15.32612
C06  39597144.86714                      1722.11214        28.71114
C09                                      2257.55914        28.21314
C12                                      4097.55712        17.04212
C16                                      1515.22015        33.75115
C19  21478382.72516                      1649.73116        37.06116
C22  24305105.42606    -38346.84306      4256.07306        38.34706
C24                                      -474.14612        17.17512
C29  23147956.90315                      -967.56915        30.63815
C35  21602977.97007    -80038.58707      1590.43207        44.20207
> 2021 10 01 08 02 49.0000916  0 20
G01  20720893.22407    -42916.16207      2654.07607        43.75107
G03                   -242041.70107      4135.40907        43.62307
G08  20952804.27506     17864.63606      -704.29806        39.48106
G10  24598746.44216                     -2116.79916        36.19716
G14  23587956.59716                      2114.03316        40.48516
G17                                      4469.26412        12.00012
G21  20953999.24816                      1287.02816        39.93116
G22  20979907.01307   -163572.19907      2760.29707        45.08007
G27  23047959.63014                     -2086.43414        24.52114
G32  22625949.88115                       911.16215        35.05315
C05                                      1186.34012        12.00012
C06  39596803.10415                      1724.34115        35.83515
C09                                      2257.55913        19.46313
C12                                      4087.80112        13.91812
C16  40141058.02415                      1514.15115        35.45615
C19  21478065.24506    -88237.82206      1649.52506        37.93106
C22  24304288.19116                      4256.16716        37.91416
C24                                      -485.85312        12.00012
C29  23148138.27715                      -965.52615        31.19315
C35  21602669.48317                      1588.57417        43.04617
> 2021 10 01 08 02 50.0000923  0 20
G01  20720395.56906    -45568.35706      2651.31606        41.87006
G03  22335341.26507   -246178.28507      4137.20207        45.78407
G08  20952930.18816                      -706.49816        39.76416
G10  24599164.35317                     -2132.14217        43.49317
G14  23587556.07506   -129809.96706      2109.86706        39.27706
G17                                      4457.55712        12.00012
G21  20953760.31406    -77551.08706      1287.57606        41.02906
G22  20979383.57517                      2760.71317        43.22717
G27  23048355.65513                     -2088.15113        20.72913
G32  22625766.70814                       871.26314        29.60314
C05                                      1190.24312        14.79412
C06  39596477.82915                      1724.75515        30.95115
C09                                      2259.51012        15.97612
C12                                      4079.99612        12.00012
C16  40140765.12716                      1509.52616        38.50416
C19  21477748.96406    -89887.37406      1649.56606        36.98006
C22  24303477.85216                      4256.31016        36.12616
C24                                      -491.70712        13.48112
C29  23148331.64315                      -964.79715        31.89415
C35  21602365.79307    -83216.23907      1587.39107        44.22507
> 2021 10 01 08 02 51.0000930  0 20
G01  20719891.31817                      2652.54417        42.32417
G03  22334557.90717                      4134.66817        43.77017
G08  20953079.18516                      -703.87116        37.23116
G10                                     -2155.92916        37.84816
G14                                      2112.79315        35.50215
G17                                      4450.72812        12.00012
G21  20953509.98707    -78839.85407      1289.63107        42.80907
G22  20978852.04316                      2758.83216        39.79616
G27  23048750.18213                     -2090.60713        18.37513
G32                                       909.51515        30.40115
C05                                      1190.24313        23.24413
C06  39596149.85614                      1722.87014        27.65914
C09                                      2259.51016        38.09516
C12                                      4078.04512        12.00012
C16  40140534.88615                      1511.03515        33.21215
C19  21477434.48206    -91538.49506      1651.94806        37.31806
C22  24302660.01915                      4228.86215        31.12215
C24                                      -493.65812        12.00012
C29  23148508.52105     25819.26505      -958.98305        35.06305
C35  21602059.70507    -84805.04207      1590.02907        43.87607
> 2021 10 01 08 02 52.0000937  0 20
G01  20719387.06716                      2658.33916        38.50116
G03                                      4113.81016        38.07516
G08  20953207.79615                      -704.23115        35.11515
G10  24599973.49316                     -2116.65616        38.94616
G14  23586756.82815                      2113.63615        33.19215
G17                                      4448.77612        12.00012
G21  20953263.85706    -80130.88006      1291.98006        41.65506
G22                                      2741.14815        34.43015
G27  23049142.91013                     -2089.92313        20.78013
G32  22625434.23815                       905.15215        35.74815
C05                                      1198.04812        16.22812
C06  39595812.58916                      1725.55616        39.26616
C09                                      2263.41315        33.32815
C12                                      4074.14312        12.00012
C16  40140185.02817                      1516.57117        42.05317
C19  21477120.59915                      1655.93115        35.11115
C22  24301909.03814                      4255.25314        26.74114
C24                                      -497.56012        12.00012
C29  23148699.78915                      -958.78415        32.38815
C35  21601756.61516                      1590.69516        40.21116
> 2021 10 01 08 02 53.0000947  0 20
G01  20718877.12016                      2660.42316        36.26716
G03                                      4099.49115        32.91415
G08  20953336.10715                      -704.38415        34.78215
G10  24600381.21016                     -2123.96116        37.74416
G14  23586351.80815                      2110.03615        33.71815
G17                                      4444.87412        12.00012
G21  20953023.12416                      1290.53016        38.51316
G22                                      2738.95914        29.79314
G27  23049504.76013                     -2090.09713        23.36613
G32                                       905.15215        35.59215
C05                                      1196.09612        12.00012
C06                                      1716.97715        35.15915
C09                                      2263.41314        24.67914
C12                                      4079.99612        12.00012
C16  40139897.22716                      1516.76716        40.01516
C19  21476799.22115                      1648.94715        34.57715
C22  24301084.01013                      4255.24313        23.33813
C24                                      -493.65812        12.00012
C29  23148874.26815                      -961.23615        32.41715
C35  21601448.72816                      1595.04616        38.94816
> 2021 10 01 08 02 54.0000954  0 20
G01  20718377.66615                      2657.15715        34.72415
G03                                      4102.08914        28.11514
G08  20953466.81716                      -706.60716        38.19916
G10  24600791.92615                     -2118.23415        32.91415
G14  23585948.28815                      2108.55715        33.28615
G17                                      4449.75212        12.00012
G21  20952770.39916                      1291.17316        39.48716
G22  20977274.53514                      2731.50114        26.28014
G27  23049904.08314                     -2091.58714        24.08814
G32  22625093.37415                       905.42115        31.40115
C05                                      1194.14512        12.00012
C06                                      1712.81415        30.43315
C09                                      2265.36414        24.99314
C12                                      4085.85012        14.67912
C16                                      1512.23715        34.50815
C19  21476483.54016                      1647.76916        37.10316
C22                                      4256.08114        24.80814
C24                                      -489.75613        21.06213
C29  23149064.63605     28705.38805      -960.63505        34.09005
C35  21601146.23816                      1590.15416        39.57116
> 2021 10 01 08 02 55.0000961  0 20
G01  20717866.81915                      2652.57115        35.39015
G03                                      4102.28014        25.07814
G08  20953604.72106     22084.21006      -703.67606        40.07606
G10  24601202.04214                     -2120.73814        28.65514
G14  23585532.17615                      2112.48215        30.05915
G17                                      4455.60512        12.00012
G21  20952529.36607    -84005.07807      1290.87107        42.52807
G22  20976766.38714                      2732.16614        24.61214
G27  23050274.02714                     -2089.64214        26.16214
G32  22624910.50015                       908.70515        30.64915
C05                                      1188.29213        23.98713
C06                                      1713.57114        28.05214
C09                                      2253.65614        29.18314
C12                                      4085.85012        12.00012
C16                                      1504.73515        30.07715
C19  21476164.56106    -98146.15106      1650.65606        39.69906
C22                                      4256.43214        26.36714
C24                                      -487.80412        12.00012
C29  23149249.90805     29666.23105      -961.14205        35.49805
C35  21600838.05107    -91169.04407      1590.12507        43.53307
> 2021 10 01 08 02 56.0000968  0 20
G01  20717364.66716                      2651.35016        40.31716
G03  22330656.70813                      4102.28813        21.61713
G08  20953733.03207     22787.39607      -701.98207        42.40007
G10  24601571.38715                     -2117.55915        34.75015
G14  23585188.61414                      2128.87314        25.94814
G17                                      4452.67912        12.00012
G21  20952278.43907    -85296.46107      1292.65707        42.77707
G22  20976230.05815                      2762.76515        30.22615
G27  23050676.04914                     -2093.69114        26.41714
